name,type,district,sub_district,address,phone,email,website,operator,lat,lon,osm_id,source
"Community Health Centre, Neriamangalam",Community Health Centre (CHC),Ernakulam,,,,,,,10.0524393,76.7726069,way/934542172,OpenStreetMap
Community Health Centre Kurathikad,Community Health Centre (CHC),Alappuzha,,"Alappuzha, Kerala, 686102",,,,Department of Health and Family Welfare,9.4251591,76.4894555,node/7730161990,OpenStreetMap
District Hospital Mavelikkara,District Hospital,Alappuzha,,"Mavelikkara - Kozhencherry Road, mavelikara, Alappuzha, Kerala, 690101",,,,Department of Health and Family Welfare,9.2562213,76.5516,way/798626112,OpenStreetMap
Family Health Centre Ala,Family Health Centre (FHC),Alappuzha,,"Chengannur, Alappuzha, Alappuzha, Kerala, 689126",,,,Department of Health Centre,9.2788516,76.6184456,way/800764411,OpenStreetMap
Primary Health Center Muttar,Primary Health Centre (PHC),Alappuzha,,"Alappuzha, Kerala, 689595",,,,,9.412204,76.475457,node/7730161971,OpenStreetMap
Sacred Heart General Hospital,General Hospital,Alappuzha,,"Alappuzha, Kerala, 688524",,,,,9.6622164,76.3391393,node/6951443873,OpenStreetMap
"Urban Primary Health Centre, Mangalam",Primary Health Centre (PHC),Alappuzha,,"Mangalam, Alappuzha, Alappuzha, Kerala, 688007",,,,,9.5118877,76.3200821,node/7730161936,OpenStreetMap
"Urban Primary Health Centre, Nehrutrophy",Primary Health Centre (PHC),Alappuzha,,"Nehrutrophy, Alappuzha, Alappuzha, Kerala, 688006",,,,,9.508863,76.360736,node/7730161985,OpenStreetMap
"District Medical Office, Ernakulam",Alternative,Ernakulam,,Ernakulam,+91-4842335592,,,Government,9.9889992,76.3101419,way/995515470,OpenStreetMap
Ayyamppilly Government Hospital,Hospital,Ernakulam,,"Ernakulam, Kerala, 682501",,,,,10.1209511,76.1990261,node/7213422481,OpenStreetMap
"Family Health Centre, Karumaloor",Family Health Centre (FHC),Ernakulam,,"Ernakulam, Kerala, 683511",,,,Department of Health and Family Welfare,10.1305579,76.2926698,way/827583303,OpenStreetMap
General Clinic,Clinic,Ernakulam,,"Ernakulam, Kerala, 683562",,,,,10.0262289,76.4479498,node/6966008682,OpenStreetMap
General Hospital Ernakulam,General Hospital,Ernakulam,,"Ernakulam, Kerala, 682011",,,,Department of Health Services,9.9720127,76.2810367,way/755600802,OpenStreetMap
Government Medical College Ernakulam,Medical College,Ernakulam,Kochi,"Ernakulam, Kerala, 683503",,,https://www.cmccochin.org/,government,10.0533957,76.3557689,way/209966301,OpenStreetMap
Malankara Orthodox Syrian Church Medical College,Medical College,Ernakulam,,"Ernakulam, Kerala, 682311",,,https://www.moscmm.org/,Malankara Orthodox Syrian Church,9.9829097,76.4751165,way/138913422,OpenStreetMap
Palluruthy Government Hospital,Hospital,Ernakulam,,"Ernakulam, Kerala, 682006",,,,,9.9172926,76.2792219,node/7726235688,OpenStreetMap
Primary Health Centre Ayyampilly,Primary Health Centre (PHC),Ernakulam,,"Ernakulam, Kerala, 682501",,,,,10.1267958,76.1976849,way/950003513,OpenStreetMap
"Taluk Headquarters Hospital, North Paravur",Taluk Hospital,Ernakulam,,"Aluva - Paravur Road, North Paravur, Ernakulam, Kerala, 691504",,,,Department of Health services,10.1496178,76.2325511,way/366631591,OpenStreetMap
"Urban Primary Health Centre, Chalikkavattom",Primary Health Centre (PHC),Ernakulam,,"Ernakulam, Kerala, 682028",,,,National Urban Health Mission,9.9824178,76.3241707,node/7726235658,OpenStreetMap
ഇഎസ്ഐ ഡിസ്പെൻസറി,Clinic,Ernakulam,,"സിവിൽ സ്റ്റേഷൻ റോഡ്, മുവാറ്റുപുഴ, Ernakulam, Kerala, 686669",+914852813634,,https://www.esic.nic.in/,കേരള സർക്കാർ,10.0009577,76.5670628,node/7726206246,OpenStreetMap
Community Health Centre Vandenmedu,Community Health Centre (CHC),Idukki,,"Idukki, Kerala, 685551",,,,Department of Health and Family Welfare,9.6977943,77.1620451,node/6957652523,OpenStreetMap
"Community health centre, Vandiperiyar",Community Health Centre (CHC),Idukki,,"Idukki, Kerala, 685533",,,,Department of Health Services,9.5802851,77.0980033,way/945044087,OpenStreetMap
Family Health Centre Elamdesam,Family Health Centre (FHC),Idukki,,"Thodupuzha, Idukki",,,,Government Hospital,9.8622381,76.8024832,way/936996300,OpenStreetMap
Primary Health Centre Kumily,Primary Health Centre (PHC),Idukki,,"Idukki, Kerala, 685509",,,,Department of Health and Family Welfare,9.6059027,77.1627166,node/6950768008,OpenStreetMap
"Primary Health Centre, Peruvanthanam",Primary Health Centre (PHC),Idukki,,"Idukki, Kerala, 685532",,,,Department of Health and Family Welfare,9.5527601,76.9261696,node/7726160816,OpenStreetMap
Tata Global Beverages Limited General Hospital,General Hospital,Idukki,,"Idukki, Kerala, 685612",,,,,10.0882921,77.0561072,node/2635014311,OpenStreetMap
Community Health Centre - Kadaplamattom,Community Health Centre (CHC),Kottayam,,"Palayam - Kadaplamatom, Kadaplamattom, KOTTAYAM, kerala, 686571",+91-4822-251499,chckadaplamattom@gmail.com,,Department of Health Services,9.7163909,76.6104572,way/744317096,OpenStreetMap
Community Health Center Mayyil,Community Health Centre (CHC),Kannur,,"Kannur, Kerala, 670602",,,,Department of Health and Family Welfare,11.9947131,75.4481531,node/6965686465,OpenStreetMap
Pariyaram Medical College Hospital,Medical College,Kannur,,"Kannur, Kerala, 670503",+91 497 2808111,,,,12.0712983,75.2935,node/1685145232,OpenStreetMap
"Primary Health Centre, Pariyaram",Primary Health Centre (PHC),Kannur,,Kannur,,,,Government,12.0625456,75.3268533,way/826948318,OpenStreetMap
District Hospital's Blood Bank,District Hospital,Kasaragod,,"Kanhangad, Kasaragod, Kerala, 671315",+91-4672204333,dhbbkngd@gmail.com,,government,12.3143092,75.1048616,node/6885045527,OpenStreetMap
Family Health Centre,Family Health Centre (FHC),Kasaragod,,"Kasaragod, Kerala, 671323",,,,,12.7528748,74.9517429,node/7719654146,OpenStreetMap
General Hospital's Blood Bank,General Hospital,Kasaragod,,"Kasaragod, Kasaragod, Kerala, 671121",+91-4994225580,,,government,12.503341,74.9915948,node/6885045522,OpenStreetMap
Azeezia Medical College Hospital,Medical College,Kollam,,"Kollam, Kerala, 691537",,,http://www.azeezia.com/,,8.8895422,76.7376821,node/6950260657,OpenStreetMap
"Bishop Benziger Hospital, Kollam",Hospital,Kollam,,"Kollam, Kerala",,,,government,8.881349,76.5930609,way/332859315,OpenStreetMap
"District TB Centre, Kollam",Hospital,Kollam,,"Kollam, Kerala",,,,government,8.8881187,76.5882912,way/863543352,OpenStreetMap
ESI Hospital,Hospital,Kollam,,"Kollam, Kerala, 691501",,,,Employees' State Insurance,8.9498261,76.6637029,node/7730499873,OpenStreetMap
ESI Hospital,Hospital,Kollam,,"Kollam, Kerala, 691305",,,,Employees' State Insurance,9.022225,76.926094,node/7730588844,OpenStreetMap
FAMILY HEALTH CENTRE (FHC)THEKKUMBHAGAM,Family Health Centre (FHC),Kollam,,"Chavara South, Kollam, Kerala",,,,GOVT,8.9611015,76.5613179,node/7730499863,OpenStreetMap
Government Hospital's Blood Bank,Blood_Donation,Kollam,,"Punalur, Kollam, Kerala, 691305",+91-4752222702,,,government,9.019167,76.9248898,node/6884939743,OpenStreetMap
"Nani Memorial Hospital, Kollam",Hospital,Kollam,,"Olayil, Kollam, Kollam, Kerala, 691009",,,,government,8.8933643,76.581052,way/265735747,OpenStreetMap
Primary Health Centre,Primary Health Centre (PHC),Kollam,,"Kollam, Kerala",,,,government,8.883894,76.5767077,way/863537215,OpenStreetMap
"Primary Health Centre, Mayyanad",Primary Health Centre (PHC),Kollam,,Kollam,,,,government,8.8519631,76.6222259,way/863533532,OpenStreetMap
"Primary Health Centre, Sakthikulangara",Primary Health Centre (PHC),Kollam,,"Kollam, Kerala",,,,government,8.9115883,76.5478478,way/863538183,OpenStreetMap
"Primary Health Centre, Sakthikulangara",Primary Health Centre (PHC),Kollam,,"Kollam, Kerala",,,,government,8.9185539,76.5607646,way/863540472,OpenStreetMap
"Primary Health Centre, Shakthikulangara",Primary Health Centre (PHC),Kollam,,"Kollam, Kerala, 691581",,,,Department of Health and Family Welfare,8.9254002,76.547138,way/997453992,OpenStreetMap
"Primary Health Sub Centre, Maruthady",Primary Health Centre (PHC),Kollam,,"Kollam, Kerala",,,,government,8.9170871,76.5456581,way/863539043,OpenStreetMap
"Primary Health Sub Centre, Sakthikulangara",Primary Health Centre (PHC),Kollam,,"Kollam, Kerala",,,,government,8.9110475,76.5661968,way/863541001,OpenStreetMap
Taluk Head Quarters Hospital's Blood Bank,Taluk Hospital,Kollam,,"Kottakkara, Kollam, Kerala, 691506",+91-4742452610,,,government,9.0041046,76.775822,node/6884939732,OpenStreetMap
Taluk Headquarters Hospital Punalur,Taluk Hospital,Kollam,,"Kollam, Kerala, 691305",,,,government,9.0195351,76.9250137,way/321763078,OpenStreetMap
Travancore Medical College Hospital,Medical College,Kollam,,"Kollam, Kerala, 691589",,,http://tmc.ac.in/,,8.8750545,76.6445619,way/240940366,OpenStreetMap
"Urban Primary Health Centre ,Mundakkal",Primary Health Centre (PHC),Kollam,,"Kollam, Kerala",,,,government,8.8763441,76.5918301,way/863535361,OpenStreetMap
"Urban Primary Health Centre, Mundakkal",Primary Health Centre (PHC),Kollam,,"Kollam, Kerala",,,,government,8.8745974,76.601541,way/863535185,OpenStreetMap
"Urban Primary Health Centre, Vaddy",Primary Health Centre (PHC),Kollam,,"Kollam, Kerala, 691013",,,,National Urban Health Mission,8.884121,76.576654,node/7730499877,OpenStreetMap
"Urban Primary Health Centre, Vadi",Primary Health Centre (PHC),Kollam,,"Kollam, Kerala",,,,government,8.880959,76.5822755,way/863536395,OpenStreetMap
"Urban Primary Health Sub Centre, Vadi",Primary Health Centre (PHC),Kollam,,"Kollam, Kerala",,,,government,8.8979863,76.5662582,way/863541779,OpenStreetMap
"24*7 primary Health Centre, Ettumanoor",Primary Health Centre (PHC),Kottayam,,"Police Station Road, Ettumanur,Kottayam, Kottayam, Kerala, 686631",+91-481-2535573,kmchetr@gmail.com,,department of health services,9.6708555,76.5557088,way/864194297,OpenStreetMap
Community Health Centre Edayirikkapuzha,Community Health Centre (CHC),Kottayam,,"Kanam - Edayarikkappuzha Road, Edayirikkapuzha, Kottayam, Kerala, 686517",+91-481-2494332,chcepuzha@gmail.com,,Department of Health and Family Welfare,9.5154648,76.7085953,way/864139875,OpenStreetMap
Community Health Centre Sachivothampuram,Community Health Centre (CHC),Kottayam,,"sachivothampuram, Kottayam, Kerala, 686532",+91-481-2431700,chcspuram@gmail.com,,Department of Health and Family Welfare,9.5068845,76.5262749,way/455239905,OpenStreetMap
"Community Health Centre, Arunoottimangalam",Community Health Centre (CHC),Kottayam,,"Kaduthuruthy Road, Arunoottimangalam, Kottayam, Kerala, 686612",+91-4829-252376,chcarmangalam@rediffmail.com,,Department of Health Services,9.800549,76.4972535,node/7213540053,OpenStreetMap
"Community Health Centre, Edamaruku",Community Health Centre (CHC),Kottayam,,"Sabarimala - Kodaikkanal Road, Edamaruku, Kottayam, Kerala, 686652",+91-4822-220101,chcedamaruku@gmail.com,,Department of Health Services,9.7567292,76.7601045,node/6956419976,OpenStreetMap
"Community Health Centre, Koodalloor",Community Health Centre (CHC),Kottayam,,"Vayala-Koodalloor Market Road, Koodalloor, Kottayam, Kerala, 686587",+91-4822-254110,phckoodalloor@gmail.com,,Department of Health Services,9.7054772,76.5878953,way/655224473,OpenStreetMap
"Community Health Centre, Koottickal",Community Health Centre (CHC),Kottayam,,"thalunkal road, Koottickal, Kottayam, Kerala, 686514",+91-4828284612,chckoottickal@gmail.com,,Department of Health Services,9.5850298,76.8855683,node/6965686445,OpenStreetMap
"community health centre, paika",Community Health Centre (CHC),Kottayam,,"1352, Pala-Ponkunam Road, Paika, Kottayam, Kerala, 686577",+91-4822-225347,chcpaika@gmail.com,,department of health services,9.6516027,76.7245188,way/742748967,OpenStreetMap
"Community Health Centre, Ullanadu",Community Health Centre (CHC),Kottayam,,"Pravithanam Road, Ullanadu, Kottayam, kerala, 686651",+91-4822-247343,mochcullanadu@gmail.com,,DEPARTMENT OF HEALTH SERVICES,9.7490441,76.7212406,way/801508283,OpenStreetMap
District Hospital Kottayam,District Hospital,Kottayam,,Kottayam,,,,department of health services,9.5903999,76.5258659,way/686238557,OpenStreetMap
ESI Hospital,Hospital,Kottayam,,"Kottayam, Kerala, 686010",,,,Employees' State Insurance,9.598346,76.5639493,node/7733212388,OpenStreetMap
family health centre panachikkadu,Family Health Centre (FHC),Kottayam,,Kottayam,,,,,9.5398287,76.5346724,way/955254033,OpenStreetMap
General Hospital,General Hospital,Kottayam,,"Kottayam, Kerala, 686575",,,,DEPARTMENT OF HEALTH SERVICES,9.711455,76.6809641,node/690414609,OpenStreetMap
"Government Medical College, Kottayam",Medical College,Kottayam,,"Kottayam, Kerala, 686008",,,,,9.6342032,76.5211886,way/111545559,OpenStreetMap
Kerala State Homeo Medical College and Hospital,Medical College,Kottayam,,"Kottayam, Kerala, 686532",,,,,9.5095851,76.533903,node/7733212393,OpenStreetMap
Kottayam General Hospital's Blood Bank,General Hospital,Kottayam,,"Kottayam, Kottayam, Kerala, 686002",+91-4812563611,,,government,9.5900972,76.525872,node/6881037820,OpenStreetMap
Paika CHC,Community Health Centre (CHC),Kottayam,,"Pala-Ponkunam Road, Kottayam, Kerala, 686577",,,,DHC,9.6515945,76.7245092,node/2914441594,OpenStreetMap
Taluk Headquarters Hospital Pampady,Taluk Hospital,Kottayam,,"REF ID 1346, Kollam - Theni Highway, pampady, Kottayam, Kerala, 686502",+91-481-2507866,thqhpampady@gmail.com,,Department of Health and Family Welfare,9.56557,76.6456118,way/463354076,OpenStreetMap
KMCT Medical College Hospital,Medical College,Kozhikode,,"Kozhikode, Kerala, 673602",,,https://kmcthospital.com/,,11.3261076,75.9706199,node/7387916446,OpenStreetMap
Malabar Medical College Hospital,Medical College,Kozhikode,,"Kozhikode, Kerala, 673315",,,,,11.433778,75.7752608,way/372807390,OpenStreetMap
Primary Health Centre Purameri,Primary Health Centre (PHC),Kozhikode,,"Kozhikode, Kerala, 673507",,,,Department of Health and Family Welfare,11.654666,75.6972972,node/7720642287,OpenStreetMap
Primary Health Centre Tuneri,Primary Health Centre (PHC),Kozhikode,,"Kozhikode, Kerala, 673505",,,,Department of Health and Family Welfare,11.7068297,75.6323093,node/7720642281,OpenStreetMap
"Urban Primary Health Centre, Kannadikkal",Primary Health Centre (PHC),Kozhikode,,"Kannadikkal, Kozhikode, Kozhikode, Kerala, 673010",,,,,11.3066788,75.8066597,node/7723464325,OpenStreetMap
District Hospital Blood Bank Manjeri,District Hospital,Malappuram,,"Manjeri, MALAPPURAM, Kerala, 676121",+91-4832766880,,,government,11.1161394,76.1208512,node/6884943487,OpenStreetMap
"Community Health Center, Edappal",Community Health Centre (CHC),Malappuram,,"Malappuram, Kerala, 679576",,,,department of health service,10.7824283,76.0110118,node/4252095198,OpenStreetMap
Community Health Centre Tanur,Community Health Centre (CHC),Malappuram,,"Malappuram, Kerala, 676302",,,,Department of Health and Family Welfare,10.9770758,75.8711613,node/7724366163,OpenStreetMap
District Hospital Perinthalmanna,District Hospital,Malappuram,,"Malappuram, Kerala, 679322",,,,government,10.975167,76.233071,node/7724535534,OpenStreetMap
"Ernad Hospital, Manjeri",Hospital,Malappuram,,"Malappuram, Kerala, 676121",,,,government,11.118954,76.117957,node/7724535558,OpenStreetMap
Government Women and Children Hospital,Women & Children Hospital,Malappuram,,"Malappuram, Kerala, 679586",,,,,10.765961,75.9312881,node/7724366138,OpenStreetMap
P.M.S.A. Memorial Malappuram District Co-Operative Hospital Ltd.,Hospital,Malappuram,,"Malappuram, Kerala, 676505",,,,,11.0434812,76.0815152,way/371923607,OpenStreetMap
"Urban Primary Health Centre, Nilambur",Primary Health Centre (PHC),Malappuram,,"Malappuram, Kerala, 679330",,,,National Urban Health Mission,11.295778,76.261075,node/7724535546,OpenStreetMap
Community Health Centre Agali,Community Health Centre (CHC),Palakkad,,"Palakkad, Kerala, 678581",,,,Department of Health and Family Welfare,11.099014,76.643311,node/7726009227,OpenStreetMap
Community Health Centre Kongad,Community Health Centre (CHC),Palakkad,,"Palakkad, Kerala, 678592",,,,Department of Health and Family Welfare,10.8507017,76.528136,node/7726009169,OpenStreetMap
Family Health Centre Kollengode,Family Health Centre (FHC),Palakkad,,"Palakkad, Kerala, 678506",,,,,10.6147738,76.696926,node/7726064477,OpenStreetMap
Family Health Centre Ongallur,Family Health Centre (FHC),Palakkad,,"Palakkad, Kerala, 679313",,,,,10.8004111,76.225821,node/7726009182,OpenStreetMap
Government Hospital,Hospital,Palakkad,,"Palakkad, Kerala, 679337",,,,,10.8824797,76.2205802,node/7726009213,OpenStreetMap
"Primary Health Centre, Shornur-II",Primary Health Centre (PHC),Palakkad,,"Palakkad, Kerala, 679122",,,,,10.7914074,76.2733563,node/7726009189,OpenStreetMap
"Primary Health Centre, Thachampara",Primary Health Centre (PHC),Palakkad,,"Palakkad, Kerala",,,,,10.9671643,76.5615952,node/7726009171,OpenStreetMap
"General Hospital, Adoor",General Hospital,Pathanamthitta,,"Pathanamthitta, Kerala, 691523",,gshadoor@gmail.com,,Department of Health and family Welfare,9.1565678,76.7311035,way/1036449726,OpenStreetMap
Government Hospital,Hospital,Pathanamthitta,,"Pathanamthitta, Kerala, 689662",,,,,9.416252,77.06761,node/7730429722,OpenStreetMap
"MES Medical College, Perinthalmanna",Medical College,Malappuram,,"Perintalmanna, Kerala, 679338",,,http://www.mesams.com/,,10.9573785,76.1752293,way/259085490,OpenStreetMap
C.H.M.M.S.I.M.C Pangappara,Hospital,Thiruvananthapuram,,"Uliyalthura, Thiruvananthapuram, 695581",,,,Government,8.5577832,76.9033118,way/746561130,OpenStreetMap
CGHS Dispensary No.2,Govt Dispensary,Thiruvananthapuram,,"Thiruvananthapuram, Kerala, 695010",,,http://nb.bsf.gov.in/CGHS%20DIspenseries.pdf,government,8.5132824,76.9746311,node/6954076751,OpenStreetMap
CGHS Dispensary No.3,Govt Dispensary,Thiruvananthapuram,,"Thiruvananthapuram, Kerala, 695035",,,http://nb.bsf.gov.in/CGHS%20DIspenseries.pdf,government,8.4921508,76.9440164,node/6950602003,OpenStreetMap
Community Health Centre Poovar,Community Health Centre (CHC),Thiruvananthapuram,,"Thiruvananthapuram, Kerala, 695525",,,,Department of Health services,8.3217688,77.0652875,way/730841180,OpenStreetMap
"Community Health Centre, Pulluvila",Community Health Centre (CHC),Thiruvananthapuram,,"Thiruvananthapuram, Kerala, 695026",,,,Department of Health and Family Welfare,8.345093,77.0413555,way/972292277,OpenStreetMap
Government Ayureda Dispensary poojappura,Govt Dispensary,Thiruvananthapuram,,,,,,Government,8.4841794,76.9993394,way/1066012209,OpenStreetMap
Government Hospital,Hospital,Thiruvananthapuram,,"Thiruvananthapuram, Kerala, 695523",,,,Department of Health and family Welfare,8.390114,76.9905293,node/7730027499,OpenStreetMap
Government Taluk Hospital Varkala,Taluk Hospital,Thiruvananthapuram,,"Government Taluk Hospital, Varkala - Kallambalam Road, Varkala, Thiruvananthapuram, 695141",,,,,8.7333671,76.7202832,way/1429899375,OpenStreetMap
Medical College New OP Block,Medical College,Thiruvananthapuram,,"Thiruvananthapuram, Kerala, 695023",,,,,8.5224625,76.9282145,way/386663999,OpenStreetMap
Sree Gokulam Medical College and Research Foundation,Medical College,Thiruvananthapuram,,"Thiruvananthapuram, Kerala, 695607",,,https://www.sgmc.in/,government,8.6916939,76.9140735,node/6953715830,OpenStreetMap
SUT Medical College Hospital,Medical College,Thiruvananthapuram,,"Thiruvananthapuram, Kerala, 695028",,,https://sutams.edu.in,,8.6008036,76.9703009,way/753481837,OpenStreetMap
Taluk Head Quarter Hospital Blood Bank,Taluk Hospital,Thiruvananthapuram,,"Chiryinkil, Thiruvananthapuram, Kerala, 695304",+91-4702646565,,,Department of Health and Family Welfare,8.6609709,76.7866699,node/6882704380,OpenStreetMap
Urban Primary Health Centre Attukal,Primary Health Centre (PHC),Thiruvananthapuram,,"Thiruvananthapuram, Kerala, 695023",,,,Department of Health and Family Welfare,8.476959,76.956604,node/7730027709,OpenStreetMap
Urban Primary Health Centre Kalippankulam,Primary Health Centre (PHC),Thiruvananthapuram,,"Thiruvananthapuram, Kerala, 695009",,,,Department of Health and Family Welfare,8.4668219,76.9503375,node/7730027738,OpenStreetMap
Family Health Centre Punnayur,Family Health Centre (FHC),Thrissur,,"Edakkazhiyur post, Chavakkad, Thrissur, Kerala, 680515",+91-4872616542,,,,10.6211186,75.9963307,way/827396345,OpenStreetMap
Primary Health Center Kattoor,Primary Health Centre (PHC),Thrissur,,"Thrissur, Kerala, 680702",,,,,10.3991019,76.1424123,way/827399826,OpenStreetMap
Primary Health Center Mambra,Primary Health Centre (PHC),Thrissur,,"Thrissur, Kerala",+91 480 2733169,,,government,10.2377085,76.3531888,node/7475315995,OpenStreetMap
Primary Health Centre 24*7 Arimpur,Primary Health Centre (PHC),Thrissur,,"Kanjani, thrissur, Thrissur, Kerala, 680620",,,,government,10.497812,76.154466,node/7724606873,OpenStreetMap
Taluk Head Quarters Hospital Chalakudy,Taluk Hospital,Thrissur,,"Thrissur, Kerala, 680307",,,,,10.3082038,76.3336851,way/617835570,OpenStreetMap
"Thrissur Corporation Primary Health Centre, Ayyanathole",Primary Health Centre (PHC),Thrissur,,"G57J+VF2, Ambadi Kulam Rd, Olarikkara, Thrissur, Thrissur, 680012",,,,Thrissur Corportaion,10.5144346,76.1811187,node/12117658094,OpenStreetMap
Thrissur District Co-Operative Hospital,Hospital,Thrissur,,"Thrissur, Kerala, 680001",,,,,10.5274873,76.2118857,way/625705144,OpenStreetMap
Community Health Centre Veliyanad,Community Health Centre (CHC),Alappuzha,,"kidangara, kidangara, alappuzha, kerala, 686102",,,,Department of Health and Family Welfare,9.424983,76.4895859,way/906240767,OpenStreetMap
"Urban Public Health Centre,  Cheravally",Hospital,Alappuzha,,"kayamkulam, kayamkulam, alappuzha, kerala, 690502",,,,Naional Urban Health Mission,9.1662724,76.5165957,way/801713279,OpenStreetMap
"Community Health Centre , Nedumancavu",Community Health Centre (CHC),Kollam,,"nedumankavu, nedumancavu, kollam, kerala, 651509",+91 474 2499270,www.chcnpna2011@gmail.com,,Department of Health and family Welfare,8.9288898,76.7379066,way/799243373,OpenStreetMap
Community Health Centre Nedumpana,Community Health Centre (CHC),Kollam,,"nedumpana, kollam, kerala, 691573",+91 474 2593313,www.chcnpna2011@gmail.com,,Department of Health Services,8.8896081,76.7299275,way/799243089,OpenStreetMap
"24*7 , Primary Health Centre, Aymanam",Primary Health Centre (PHC),Kottayam,,"Aymanam, kottayam, kerala, 686008",+91-481 2516149,phcaymanam@ymail.com,,Department of health services,9.6313817,76.4813889,way/800465061,OpenStreetMap
"24*7 Primary Health centre, Athirampuzha",Primary Health Centre (PHC),Kottayam,,"Nalpathimala road, Athirampuzha, kottayam, Kerala, 686562",+91-481-2730095,phcathirampuzha1@gmail.com,,department of health services,9.6658517,76.5403371,way/799119039,OpenStreetMap
"24*7 Primary Health Centre, Parampuzha",Primary Health Centre (PHC),Kottayam,,"Parampuzha, Nattassery, Kerala 686010, Parambuzha, kottayam, KERALA, 686010",+91-4812770829,parambuzhaphc829@gmail.com,,Department of health services,9.6090807,76.5553145,way/800755555,OpenStreetMap
"Community Health Centre, Karukachal",Community Health Centre (CHC),Kottayam,,"Changanassery - Vazhoor Road, Karukachal, kottayam, kerala, 686540",+91-481-2485241,mochckchal2018@gmail.com,,departmenr of health services,9.5024765,76.638354,way/864149233,OpenStreetMap
"Community Health Centre, Kumarakam",Community Health Centre (CHC),Kottayam,,"Hospital Road, Kumarakam, kottayam, kerala, 686563",+91-481-2524310,chckumarakom@gmail.com,,department of health services,9.590736,76.4390758,way/864135432,OpenStreetMap
"community health centre, Thottakad",Community Health Centre (CHC),Kottayam,,"Thottakkadu-Kangazha Road, Thottakad, kottayam, kerala, 686539",+91-481-2462370,chcthottakkadu@gmail.com,,department of health services,9.5343003,76.6059418,way/863803394,OpenStreetMap
"General Hospital, kottayam",General Hospital,Kottayam,,"Hospital Road, Kottayam, kottayam, 686001",+91-4812563611,districthospitalktm@gmail.com,,government,9.5905228,76.5260545,way/799430592,OpenStreetMap
Primary Health Centre Vakathanam,Primary Health Centre (PHC),Kottayam,,"Njaliakuzhi-Ericade Road, Vakathanam, kottayam, kerala, 686538",+91-481-2461889,vakathanamphc@gmail.com,,Department of Health and Family Welfare,9.5111579,76.5714593,way/799735579,OpenStreetMap
"Primary Health Centre, Thalayolaparambu",Primary Health Centre (PHC),Kottayam,,"PALA-VAIKOM ROAD, Thalayolaparambu, kottayam, kerala, 686605",+91-4829-237403,phcthalayolaparambu@gmail.com,,department of health services,9.78171,76.452432,way/801511366,OpenStreetMap
Taluk Headquarters Hospital Kuravilangad,Taluk Hospital,Kottayam,,"kuravilangadu, kottayam, 686633",+91-482-2231616,thkvld@gmail.com,,Department of Health Services,9.7570105,76.5551342,way/801501571,OpenStreetMap
Taluk Headquarters Hospital Vaikom,Taluk Hospital,Kottayam,,"vaikom, kottayam, kerala, 686141",+91-4829-231261,thqhvaikom41@gmail.com,,Department of Health Services,9.7503494,76.3899111,way/619023963,OpenStreetMap
"Community Health Centre, Edayazham",Community Health Centre (CHC),Kottayam,,"Vechoor - Kallara Road, edayazham, kottayan, kerala, 686144",+91-4829-276068,moedayazham@gmail.com,,DEPARTMENT OF HEALTH SERVICES,9.6870442,76.4203256,way/801508721,OpenStreetMap
Community Health Centre Koduvayur,Community Health Centre (CHC),Palakkad,,"Palakkad - Koduvayur - Meenakshipuram Road, koduvayur, palakkad, kerala, 678501",,,,Hospital,10.6891901,76.6603698,node/4935386182,OpenStreetMap
"Community Health Centre ,Chittar",Community Health Centre (CHC),Pathanamthitta,,"chittar, chittar, pathanamthitta, kerala, 689663",,,,department of health services,9.3575101,76.590204,way/671588488,OpenStreetMap
Community Health Centre Ezhumattor,Community Health Centre (CHC),Pathanamthitta,,"Ezhumattor, pathanamthitta, pathanamthitta, kerala, 689586",,,,Department of Health and Family Welfare,9.4171142,76.7059431,way/905727354,OpenStreetMap
"Family Health Centre, Kadammanitta",Family Health Centre (FHC),Pathanamthitta,,"ranni road, kallelimukku, pathanamthitta, kerala, 689649",,,,Government,9.3145586,76.7745402,way/845083133,OpenStreetMap
"Family Health Centre, Koipuram",Family Health Centre (FHC),Pathanamthitta,,"koipuram, nellickal, pathanamthitta, kerala, 689531",,,,DHS,9.3342832,76.6531449,way/790459244,OpenStreetMap
"Family Health Centre, Pandalam",Family Health Centre (FHC),Pathanamthitta,,"Pandalam - Pathanamthitta, pandalam, pathanamthitta, kerala, 689501",+91-4734 256 090,,,department of health service,9.2251728,76.6827282,way/637209907,OpenStreetMap
NSS Medical Mission Hospital Pandalam,Hospital,Pathanamthitta,,"MC Road, PANDALAM, pathanamthitta, kerala, 689501",,,,depaartment of health,9.2159105,76.6804273,way/834208922,OpenStreetMap
primary health centre kokkathod,Primary Health Centre (PHC),Pathanamthitta,,"aruvappulam, pathanamthitta, kerala, 689699",,,,health centre,9.1984498,76.9786924,way/905830928,OpenStreetMap
"Primary Health Centre, Angamoozhy",Primary Health Centre (PHC),Pathanamthitta,,"Angamoozhy Bridge, Angamoozhy, pathanamthitta, kerala, 689662",,,,department of health services,9.3578195,76.9868081,way/800639610,OpenStreetMap
"Primary Health Centre, Chittar",Primary Health Centre (PHC),Pathanamthitta,,"chittar, chittar, pathanamthitta, kerala, 689662",,,,Department of Health and Family Welfare,9.3516145,76.9852278,way/905691338,OpenStreetMap
"Primary Health Centre, Kadampanad",Primary Health Centre (PHC),Pathanamthitta,,"kunnathur, kunnathur,kadampanad, pathanamthitta, kerala, 691552",,,,department of health service,9.0889608,76.700331,way/799785000,OpenStreetMap
"Primary Health Centre, Kaviyoor",Primary Health Centre (PHC),Pathanamthitta,,"kaviyoor, thiruvalla, pathanamthitta, kerala, 689582",,,,department of health services,9.3978234,76.6057705,way/799791763,OpenStreetMap
"Primary Health Centre, Kokkathodu",Primary Health Centre (PHC),Pathanamthitta,,"ezhumattoor, pathanamthitta, kerala, 689586",,,,department of health sevice,9.1945412,76.9728305,way/799801519,OpenStreetMap
"Primary Health Centre,Kottoor",Primary Health Centre (PHC),Pathanamthitta,,"Thondara Bridge Across Manimal River, kuttoor, pathanamthitta, kerala, 689106",,,,department of health services,9.3613638,76.5866768,way/905695195,OpenStreetMap
"Public Health Centre,Omalloor",Hospital,Pathanamthitta,,"Omallur-Elavumthitta Road, pathanamthitta, pathanamthitta, kerala, 689647",,,,Government,9.2474012,76.7512132,way/905790652,OpenStreetMap
"Public Health Centre,Pandalam",Hospital,Pathanamthitta,,"Pandalam - Pathanamthitta, pathanamthitta, pathanamthitta, kerala, 689501",,,,government,9.2235882,76.6866302,way/905794740,OpenStreetMap
24*7 Primary Health Care Cherthala South,Primary Health Centre (PHC),Alappuzha,,,+91-47802572533,,,DEPARTMENT OD HEALTH SERVICES,9.6542048,76.2996281,way/800255004,OpenStreetMap
24x7 Govt Primary Health centre Palappetty,Primary Health Centre (PHC),Malappuram,,,,,,DHS(DEPARTMENT OF HEALTH SERVICES),10.6986389,75.9606899,node/4124941674,OpenStreetMap
24x7 Govt Primary Health centre Vazhayur,Primary Health Centre (PHC),Malappuram,,,,,,DHS(DEPARTMENT OF HEALTH SERVICES),11.2232104,75.9015049,node/7479082230,OpenStreetMap
24X7 PHC Vattiyoorkavu,Primary Health Centre (PHC),Thiruvananthapuram,,,,,,Department of Health Services,8.5257152,77.0060976,node/7489692985,OpenStreetMap
24x7 Primary Health Centre Ezhupunna,Primary Health Centre (PHC),Alappuzha,,,+91-478 287 7699,ezhupunnaphc@yahoo.in,,Department of health services,9.8312102,76.2971579,way/620215797,OpenStreetMap
"24x7 Primary Health Centre, Koottumughm",Primary Health Centre (PHC),Kannur,,,,,,,12.0525605,75.5306558,node/9066141205,OpenStreetMap
"24×7 Primary Health Centre, Cherykunnu",Primary Health Centre (PHC),Kannur,,Pilathara - Pazhayangadi - Pappinisseri,,,,Government,11.9888099,75.3054709,way/799609983,OpenStreetMap
"24×7 Primary health centre, Kelakam",Primary Health Centre (PHC),Kannur,,,,,,Government,11.9001654,75.8131351,node/7479298278,OpenStreetMap
"24×7 Primary health centre, Koodali",Primary Health Centre (PHC),Kannur,,,,,,Government,11.9228113,75.4801866,node/7479274356,OpenStreetMap
"24×7 Primary health centre, Naduvil",Primary Health Centre (PHC),Kannur,,,,,,Government,12.1228978,75.4801785,node/7479347919,OpenStreetMap
"24×7 Primary health centre, Parassinikadavu",Primary Health Centre (PHC),Kannur,,Parassininkkadavu Road,,,,Government,11.984397,75.4008169,node/7479328159,OpenStreetMap
"24×7 Primary health centre, Udayagiri",Primary Health Centre (PHC),Kannur,,Udayagiri-Cherupuzha,,,,Government,12.2364204,75.4827266,node/7479317954,OpenStreetMap
aashvas laboratory,Laboratory,Thiruvananthapuram,,"Malayankeezhu-Kattakada Road, malayinkeezhu, 695571",,,,central government,8.4899266,77.0383956,node/7633078636,OpenStreetMap
"Aayush phc, kannapuram",Primary Health Centre (PHC),Kannur,,,,,,,11.989309,75.3066794,node/8399743563,OpenStreetMap
Adakkaputhur Government Hospital,Hospital,Palakkad,,,,,,,10.8716195,76.3748653,node/10783632594,OpenStreetMap
Al Abeer Medical College Proposed site,Medical College,Malappuram,,,,,,,11.0871073,76.0811376,node/8756181217,OpenStreetMap
Al-Azhar Medical College & Super Speciality Hospital,Medical College,Idukki,,,,,,Department of Health and family Welfare,9.939524,76.720604,node/9001039926,OpenStreetMap
"Alangad Medical Centre And Micro-Bio Lab,Kongorpilly",Clinic,Ernakulam,,,,,,public,10.121906,76.2999201,node/9022677734,OpenStreetMap
Alapuzha Government Hospital,Hospital,Alappuzha,,,,,,,9.487803,76.3224164,node/8869720305,OpenStreetMap
Anakkapilla Sub Center,Clinic,Thiruvananthapuram,,St Andrews Road,,,,Government,8.5716576,76.8478166,way/1204164686,OpenStreetMap
Angadimogaru,Hospital,Kasaragod,,"angadimogaru, Puthige",+91 4998 250292,phcangadimogaru@gmail.com,,DEPARTMENT OF HEALTH SERVICE,12.6197891,75.0309339,node/7470915046,OpenStreetMap
ANIMAL DISEASE CONTROL PROJECT THRISSUR,Hospital,Thrissur,,"PARAVATTANI, Paravattani - Nellikunnu Rd, THRISSUR, 680005",,,,GOVERNMENT OF KERALA,10.5202667,76.2415681,node/5449525984,OpenStreetMap
Annamanada Ayush Phc (Homoeo),Primary Health Centre (PHC),Thrissur,,"Annamanada Mala Road, Annamanada, 680741",,,,gov,10.2383046,76.3267975,node/8118034804,OpenStreetMap
APHC(NHM)HOMOEO PUDUKKAD,Primary Health Centre (PHC),Thrissur,,"Salem-Kochi-Kanyakumari Highway, pudukad, 680301",,,,GOVERNMENT,10.4252911,76.2678905,node/8116442019,OpenStreetMap
Appad Sub center,Hospital,Wayanad,,,,,,Health and family welfare,11.6935542,76.1754739,node/8002434909,OpenStreetMap
Aravalli Center For Health And Medical Services,Doctor's Office,Kasaragod,,,+91 94972 03698,,,Central University of Kerala,12.3899973,75.0949692,way/1086850924,OpenStreetMap
Aroga Upa Kendram Mankuva,Clinic,Idukki,,"Mankuva, Mankuva",,,,government,9.9296896,76.9935556,way/964353698,OpenStreetMap
Arogya Upakendram Kallippara,Clinic,Idukki,,"kallippara, kallippara",,,,government,9.9050955,77.0372272,way/982712633,OpenStreetMap
Arogya Upakendram Melechinnar,Centre,Idukki,,"Melechinnar, Melechinnar",,,,government,9.8748167,77.0889185,node/9094617146,OpenStreetMap
Arogya Upakendram Thopramkudy,Centre,Idukki,,"Thopramkudy, Thopramkudy",,,,Government,9.8797001,77.0600304,way/982445333,OpenStreetMap
Arogyakeralam Wayanad,Hospital,Wayanad,,"Kainatty, Kalpetta, 673122",+91-4936202771,dpmwynd@gmail.com,,National Health Mission,11.6350234,76.0902421,node/7999419714,OpenStreetMap
Aspel Medcity Hospital,Yes,Malappuram,,"Ponnani-Chavakkad-Kodungallur Highway, Veliancode, 679579",,,,corporation,10.7322226,75.9456867,way/950167547,OpenStreetMap
Ayancheri FHC,Family Health Centre (FHC),Kozhikode,,,,,,,11.6468843,75.664865,node/10106414663,OpenStreetMap
Aymanam Gramapanchayat  Family Health Centre Veliad,Family Health Centre (FHC),Kottayam,,,,,,government,9.6316254,76.4815402,way/987274612,OpenStreetMap
Ayurvedha Dispensary,Govt Dispensary,Ernakulam,,,,,,Government,10.1125591,76.2293049,node/8880492891,OpenStreetMap
Ayurvedha Dispensary,Govt Dispensary,Palakkad,,"pattisery road, Chalissery, 679536",,,,Government,10.7375722,76.0882367,way/985503919,OpenStreetMap
Ayurvedha Dispensary Mekozhoor,Govt Dispensary,Pathanamthitta,,"Mekozhoor Junction, Pathanamthitta, 689678",,,,Government,9.3135803,76.7947703,node/8675331833,OpenStreetMap
"Ayurvedha Dispensary, Pakkam",Govt Dispensary,Kasaragod,,"Kannamvayal, Pakkam, Pallikkare, 671316",+91-467 2272225,,,Govrnment,12.4001539,75.0616999,way/822442821,OpenStreetMap
Ayurvedha Dispensery Thrikkalangod,Clinic,Malappuram,,,,,,government,11.155488,76.1670807,way/974381371,OpenStreetMap
ayurvedha hospital ground mundayamparambu,Hospital,Kannur,,,,,,hospital authority,12.0122443,75.7250144,node/8401492813,OpenStreetMap
Ayurvedha Hospital Vadakkekkara,Hospital,Ernakulam,,,,,,government,10.1766072,76.1970036,way/972325611,OpenStreetMap
AYUSH AYUREVEDA PHC-NHM  PATHANAPURAM,Primary Health Centre (PHC),Kollam,,"AYUSH AYURVEDA PHC -NHM PATHANAPURAM, Pattazhy - Pathanapuram, KUNDAYAM, 689695",,,,,9.0801246,76.8420373,way/866866612,OpenStreetMap
Ayush Health Care Center,Hospital,Ernakulam,,,,,,Kothamangalam Municipality,10.0488197,76.6140926,node/9409091807,OpenStreetMap
AYUSH HOMEO PHC VANDENMEDU,Primary Health Centre (PHC),Idukki,,,,,,,9.7340537,77.176557,node/8325319074,OpenStreetMap
Ayush Homeopathy PHC,Primary Health Centre (PHC),Kottayam,,"NH 183, Kodungoor, 686504",,,,government,9.5661945,76.706714,node/9085547623,OpenStreetMap
Ayush National Health Mission Primary Health Centre Homeopathy,Primary Health Centre (PHC),Kannur,,"Moonuperiya Chakkarakkal Road, chakkarakal, 670613",,,,gramapanchayath,11.8891755,75.4705171,node/8752914544,OpenStreetMap
Ayush PHC Homeo Dispensary,Primary Health Centre (PHC),Kottayam,,,,,,,9.7156213,76.3989778,way/620312121,OpenStreetMap
"ayush phc homeo, muzhapilangad",Primary Health Centre (PHC),Kannur,,,,,,,11.7974402,75.4518901,node/9167735169,OpenStreetMap
Ayush PHC Homoeo,Primary Health Centre (PHC),Thrissur,,"Northern outer ring Road Guruvayur, Guruvayoor, 680101",,,,Government,10.5969087,76.0426248,node/7428553196,OpenStreetMap
AYUSH PHC HOMOEO KODASSERY,Primary Health Centre (PHC),Thrissur,,"Near Panchayath, Chalakudy Vellikulangara Road, Chettikulam, 680721",,,,,10.3431333,76.3945927,node/8119956610,OpenStreetMap
AYUSH PHC HOMOEO PERINJANAM,Primary Health Centre (PHC),Thrissur,,"Panchayat Road, Chakkarapadom, Perinjanam GP, 680686",,,,,10.305805,76.1594782,node/8137551058,OpenStreetMap
Ayush PHC Homoeo Pookode,Primary Health Centre (PHC),Thrissur,,"Old society stop, Guruvayoor - Althara - Ponnani Road, Thampuranpadi, 680505",,,,,10.6242672,76.026012,node/8120189044,OpenStreetMap
ayush phc Kanhirode Homeopathy Health Centre,Primary Health Centre (PHC),Kannur,,,,,,,11.9182832,75.4640899,node/9362208599,OpenStreetMap
ayush phc Kathikudam,Primary Health Centre (PHC),Thrissur,,"137, Kathikudam, chalakudy, Kathikudam",,,,,10.2590563,76.3278085,node/9424597962,OpenStreetMap
AYUSH PHC KODASEERI HOMOEO,Primary Health Centre (PHC),Thrissur,,"Near Kodaseeri Panchayath, Chalakudy Vellikulangara Road, Chettikulam, 680721",,ayushkodasserihomoeo@gmail.com,,,10.3430982,76.3945867,way/618143960,OpenStreetMap
AYUSH PHC MANALUR HOMOEO,Primary Health Centre (PHC),Thrissur,,"kanjany busstand bus route, Kanjany, 680612",,,,,10.4777255,76.114134,node/7076855312,OpenStreetMap
AYUSH PHC NENMANIKKARA HOMOEO,Primary Health Centre (PHC),Thrissur,,"Urakam-Pudukad road,Nenmanikkara, NENMANIKKARA,THRISSUR, 680131",,ayushnenmanikkarahomoeo@gmail.com,,AYUSH,10.4223059,76.2507609,node/8111952278,OpenStreetMap
Ayush PHC pooyappally,Primary Health Centre (PHC),Kollam,,"pooyappally, Pooyappally, 691537",,,,government,8.9082806,76.762142,way/865715257,OpenStreetMap
"ayush phc,Karthikapuram",Primary Health Centre (PHC),Kannur,,,,,,,12.2290828,75.4830591,node/10073358588,OpenStreetMap
"Ayush Primary Health Cente, Homeo Dispencery",Primary Health Centre (PHC),Kasaragod,,Pallapaady,,,,,12.5927551,75.1742182,way/1094009509,OpenStreetMap
Ayush Primary Health Center,Primary Health Centre (PHC),Kannur,,,,,,,11.9784744,75.3144377,node/9156874103,OpenStreetMap
Ayush Primary Health Center Homeopathy,Primary Health Centre (PHC),Malappuram,,"Valanchery-Koppam Road, Valanchery, 676552",,,,,10.8811395,76.0787913,way/1005122237,OpenStreetMap
Ayush Primary Health Center Homeopathy Hospital,Primary Health Centre (PHC),Ernakulam,,,,,,,10.1431938,76.57295,node/8931154124,OpenStreetMap
"Ayush Primary Health Center, Ezhome",Primary Health Centre (PHC),Kannur,,Taliparamba-Pazhangadi,,,,,12.0510936,75.3276506,node/9339562062,OpenStreetMap
AYUSH PRIMARY HEALTH CENTR ( HOMEOPATHY),Primary Health Centre (PHC),Kozhikode,,,,,,,11.3884543,75.8483988,node/10067985295,OpenStreetMap
Ayush Primary Health Centre (Homeopathy),Primary Health Centre (PHC),Kannur,,,,,,Pariyaram Grama Panchayat,12.0687532,75.3533711,node/9355383598,OpenStreetMap
"Ayush Primary Health Centre ,Balanthode",Primary Health Centre (PHC),Kasaragod,,,,,,,12.4592902,75.3216342,node/8321453392,OpenStreetMap
AYUSH Primary Health Centre Homeopathy Kadukutty Vynthala Homoeo Dispensery,Primary Health Centre (PHC),Thrissur,,,,,,Government,10.2591342,76.3030196,node/8170855743,OpenStreetMap
ayush primary health centre homoeo mullasseri,Primary Health Centre (PHC),Thrissur,,"Amala Nagar - Pavaratty Road, thrissur, 680508",,,,,10.5555157,76.0984986,node/8119739238,OpenStreetMap
Ayush Primary Health Centre Triprangode,Primary Health Centre (PHC),Malappuram,,"Govt Primary Health Centre, Alingal, Triprangode Po, 676108",,,,Department of health serveice,10.8511376,75.9412994,node/7486268954,OpenStreetMap
Believers Church Medical College Hospital,Medical College,Pathanamthitta,,,+91-4692703100,,https://www.bcmch.org,,9.4164376,76.5753808,way/480615561,OpenStreetMap
Biocare Certified Medical Laboratory;Family Health Centre,Family Health Centre (FHC),Pathanamthitta,,"BIOCARE, NABH Certified Medical Laboratory, Govt. hospital road, pandalam, 689501",,,,private,9.2245621,76.682552,way/785904546,OpenStreetMap
Block B (Kusavarkal Primary Health Centre),Primary Health Centre (PHC),Thiruvananthapuram,,,,,,,8.5470221,76.9503587,way/923424535,OpenStreetMap
Buds Rehabilitation Centre,Rehabilitation,Kannur,,"kannur, 670621",,,,gramapanchayath,11.8632347,75.4455249,way/946736133,OpenStreetMap
Bweekly Dispensary Valiyappoil,Govt Dispensary,Kasaragod,,"Njanakai-Cheemeni, kodakkad, 671310",,,,Department of Health Service,12.2109425,75.2147483,node/7473060945,OpenStreetMap
"Bweekly dispensary, thrikkarippur",Govt Dispensary,Kasaragod,,"Chandera -Trikaripur -Olavara Rd, Thrikkarippur, 671310",,,,Department of health service,12.1436998,75.1812053,node/7473060946,OpenStreetMap
Central Prison Dispensary,Govt Dispensary,Thrissur,,"Thrissur, 680009",,,,government,10.5547639,76.2182552,way/824602450,OpenStreetMap
Chalakudy Government Hospital,Hospital,Thrissur,,,,,,,10.2969956,76.3409606,way/1335988056,OpenStreetMap
chambakkara primary health centre,Primary Health Centre (PHC),Ernakulam,,"chambakkara primary health centre, chambakkara, Ernakulam, 682308",,,,,9.9542828,76.3289044,node/8356502481,OpenStreetMap
Chazhiyod Sub Center,Clinic,Malappuram,,,,,,Government,11.1599661,76.3225464,way/958388942,OpenStreetMap
CHC Bedadka,Community Health Centre (CHC),Kasaragod,,"kudamkuzhi -bedadka road, bedadka, 671541",,,,Department of health service,12.4605433,75.1677874,way/785041981,OpenStreetMap
CHC Chathankary,Community Health Centre (CHC),Pathanamthitta,,,,,,DHS,9.383748,76.5266278,way/628314833,OpenStreetMap
Chc Edathuva,Community Health Centre (CHC),Alappuzha,,,,chcedathua@gmail.com,,04772210750,9.3650487,76.4773317,node/7485511255,OpenStreetMap
CHC KODUVAYUR,Community Health Centre (CHC),Palakkad,,,,,,,10.6896508,76.6599469,node/8903377517,OpenStreetMap
CHC Koorachundu,Community Health Centre (CHC),Kozhikode,,,,,,Department of Health and Family Welfare,11.5376341,75.8415463,node/3028236949,OpenStreetMap
CHC Neduva,Community Health Centre (CHC),Malappuram,,,,,,govt,11.0768031,75.851873,node/2169569578,OpenStreetMap
CHC Perumkadavila,Community Health Centre (CHC),Thiruvananthapuram,,"perumkadavila-paliyode road, Perumkadavila, 695124",,,,Department of Health and Family Welfare,8.4414749,77.1110646,node/8995195332,OpenStreetMap
CHC Pulluvila,Community Health Centre (CHC),Thiruvananthapuram,,,,,,Department of Health and Family Welfare,8.3467271,77.0377856,node/8995195330,OpenStreetMap
CHC pulpally,Community Health Centre (CHC),Wayanad,,,,,,,11.7941324,76.1652103,way/804135039,OpenStreetMap
CHC Purathur,Community Health Centre (CHC),Malappuram,,,,,,,10.8280813,75.9223985,node/9099801453,OpenStreetMap
CHC Thanneermukkom,Community Health Centre (CHC),Alappuzha,,,+91-478 2584404,motkmchc@gmail.com,,Department of Health Services,9.676436,76.3932861,node/7477933847,OpenStreetMap
CHC Thycattussery,Community Health Centre (CHC),Alappuzha,,,,,,DEPARTMENT OF HEALTH SERVICES,9.7749237,76.3400369,way/799548975,OpenStreetMap
CHC Vechoochira,Community Health Centre (CHC),Pathanamthitta,,,,,,DHS,9.4272032,76.8531401,way/799805095,OpenStreetMap
Chc Veliyanad,Community Health Centre (CHC),Alappuzha,,,+91-477 2753228,chcveliyanadu@gmail.com,,Department of Health Services,9.4511953,76.4697604,node/7485626460,OpenStreetMap
CHC Vellarada,Community Health Centre (CHC),Thiruvananthapuram,,,,,,Department of Health and Family Welfare,8.4519775,77.196313,node/8995195331,OpenStreetMap
"CHC, THOTTAKADU",Community Health Centre (CHC),Kottayam,,"Kottayam-Kozhencherry Highway, Thottacadu,Kottayam, 686539",+91-481-2462370,chcthottakkadu@gmail.com,,Department of Health Services,9.5346358,76.601663,way/798895346,OpenStreetMap
Cheerankunnu Sub center,Hospital,Wayanad,,,,,,haelth and family welfare,11.6544507,76.1598316,node/8002648770,OpenStreetMap
Chelannur General Hospital (Dr.Sushama),General Hospital,Kozhikode,,,,,,Department of Health and Family Welfare,11.3580224,75.8047037,node/7500031544,OpenStreetMap
Chelannur Primary Health Centre,Primary Health Centre (PHC),Kozhikode,,,,,,,11.3638635,75.8239741,way/800972503,OpenStreetMap
Chelora Primary Health Centre,Primary Health Centre (PHC),Kannur,,Kannur - Mattannur Road,,,,Government,11.900191,75.4311085,node/7480323478,OpenStreetMap
"Chest Diseases Hospital, Pulayanarkottah",Hospital,Thiruvananthapuram,,,,,,Department of Health services,8.5193675,76.9137762,way/800773987,OpenStreetMap
Chittariparamb PHC,Primary Health Centre (PHC),Kannur,,Thalasseri - Bavali Road,,,,Government,11.843964,75.6294826,node/7492119661,OpenStreetMap
Chokli Primary Health Centre,Primary Health Centre (PHC),Kannur,,,,,,Government,11.7122717,75.5631166,node/7480808387,OpenStreetMap
choothupara sub center,Hospital,Wayanad,,,,,,health and family welfare,11.702407,76.1615233,node/8002448926,OpenStreetMap
"CKM Community Health Centre ,Mayyanad",Community Health Centre (CHC),Kollam,,0474-2555050,,,,Department of Health Services,8.8425619,76.6462815,way/799252621,OpenStreetMap
"CKM Community Health Centre, Mayyanad",Community Health Centre (CHC),Kollam,,,,,,,8.8421786,76.6463035,way/978673390,OpenStreetMap
Coastal Speciality Hospital Valiyathura,Hospital,Thiruvananthapuram,,,,,,Department of Health services,8.4633998,76.9270475,way/797896917,OpenStreetMap
Cochin Cancer Research Centre,Hospital,Ernakulam,,,,,,Department of Health and Family Welfare,10.0534587,76.3543132,node/8889495211,OpenStreetMap
Commuity Health Centre Pandanadu,Hospital,Alappuzha,,,+91-479 2466678,,,Department of Health and Family Welfare,9.3264202,76.5732287,node/7477888917,OpenStreetMap
Communinty Health Centre Meppadi,Hospital,Wayanad,,"Calicut - Vythiri - Gudalur Road, Meppadi, 673577",,,,Department of Health Services,11.5583935,76.1307697,way/763029796,OpenStreetMap
"Community Health Caenter, Meenanagadi",Community Health Centre (CHC),Wayanad,,"Meenangadi -Moonnankuzhi Road, Meenangadi, 673591",,,,,11.6645151,76.1678844,node/7398810590,OpenStreetMap
Community Health Care Center,Community Health Centre (CHC),Alappuzha,,690506,,,,,9.2170778,76.4557043,way/980697256,OpenStreetMap
Community Health Center,Community Health Centre (CHC),Palakkad,,,,,,,10.8994013,76.4942785,node/9289486570,OpenStreetMap
Community Health Center,Community Health Centre (CHC),Idukki,,Muttom,+91 486 2255028,chcmuttom@gmail.com,https://chcmuttom.com/,,9.834865,76.7449852,way/923149649,OpenStreetMap
Community Health Center,Community Health Centre (CHC),Wayanad,,Meenangadi,+91 04936 247 290,,,Government,11.6645455,76.1680243,way/933786989,OpenStreetMap
Community Health Center,Community Health Centre (CHC),Thrissur,,"Mullassery - Padoor Rd, Mullassery, 680509",,,,Department of Health Service,10.5335916,76.0843873,way/973206132,OpenStreetMap
Community Health Center,Community Health Centre (CHC),Kannur,,,,,,,12.23318,75.5227654,way/1503602689,OpenStreetMap
Community health center alanallur,Community Health Centre (CHC),Palakkad,,"Alanallur karinkallathani road, Alanallur, 678601",,,,Department of Health and Family Welfare,11.0093759,76.34408,way/827558983,OpenStreetMap
Community Health Center Ambalappara,Community Health Centre (CHC),Palakkad,,,,,,DEPARTMENT OF HEALTH AND FAMILY WELFARE,10.8296294,76.4171583,way/362345278,OpenStreetMap
community health center bhagavathipuram,Community Health Centre (CHC),Thiruvananthapuram,,,,,,GOVERNMENT,8.5494226,77.0403596,node/7631649806,OpenStreetMap
Community Health Center Chalavara,Community Health Centre (CHC),Palakkad,,,,,,Department of Health and Family Welfare,10.8351454,76.2791981,way/967160202,OpenStreetMap
Community Health Center Chathenkary,Community Health Centre (CHC),Pathanamthitta,,,,,,DHS,9.3838096,76.5265933,node/7479756759,OpenStreetMap
Community Health Center Cheruvadi,Community Health Centre (CHC),Kozhikode,,"Primary Health Center, pottammal health centre road",,,,Department of Health and Family welfare,11.2639869,75.9990177,node/7516509623,OpenStreetMap
Community Health Center Chunnakara,Community Health Centre (CHC),Alappuzha,,,,,,,9.1863722,76.5885965,node/8878893453,OpenStreetMap
Community Health Center Edappal,Community Health Centre (CHC),Malappuram,,"Amsakachery-Ayilakkad Road, EDAPPAL, 679576",,,,Government,10.783919,76.0015819,way/827369786,OpenStreetMap
Community Health Center Edathuva,Community Health Centre (CHC),Alappuzha,,,,,,Department of Health Sevices,9.3649818,76.4772545,way/799755683,OpenStreetMap
Community Health Center Kalakkode,Community Health Centre (CHC),Kollam,,0474-2512144,,,,Department of Health Services,8.7950878,76.6777876,way/799244139,OpenStreetMap
Community Health Center Kodanchery,Community Health Centre (CHC),Kozhikode,,,,,,Department of Health and Family Welfare,11.4362652,76.0077578,node/9063647194,OpenStreetMap
Community Health Center Koduvally,Community Health Centre (CHC),Kozhikode,,,,,,Department of Health and Family Welafre,11.3600108,75.9128645,node/9063693069,OpenStreetMap
Community Health Center Koduvayur,Community Health Centre (CHC),Palakkad,,,,,,Department of Health and Family Welfare,10.6894193,76.6601149,way/975575277,OpenStreetMap
Community Health center kootumugham,Community Health Centre (CHC),Kannur,,,,,,department of health,12.0529956,75.5347922,way/802691669,OpenStreetMap
Community Health Center Kozhinjampara,Community Health Centre (CHC),Palakkad,,,,,,Department of Health and Family Welfare,10.7391653,76.8345052,way/374137857,OpenStreetMap
Community Health Center Kunnumal,Community Health Centre (CHC),Kozhikode,,,,,,Department of Health and Family Welafre,11.6764793,75.7024386,way/790290098,OpenStreetMap
Community Health Center Kuttippuram,Community Health Centre (CHC),Malappuram,,"Police Station Road, Kuttippuram, 679571",,,,Department of Health and Services,10.853443,76.036795,way/798787947,OpenStreetMap
Community Health Center Mnakada,Community Health Centre (CHC),Malappuram,,"Mankada Hospital Road, Mankada, 679324",,,,,11.0166849,76.1753643,way/957843518,OpenStreetMap
Community Health Center Nanniyode,Community Health Centre (CHC),Palakkad,,,,,,Department of Health and Family Welfare,10.6444276,76.7787029,way/827565088,OpenStreetMap
Community Health Center Nemmara,Community Health Centre (CHC),Palakkad,,"Nenmara-Nelliyampathy Road, Nemmara, 678508",,,,Department of Health and Family Welfare,10.5926297,76.6006639,way/977118794,OpenStreetMap
Community Health Center Porunnanore,Community Health Centre (CHC),Wayanad,,"Peechamkode, Peechamkode, 670732",,,,Department of Health Services,11.7511393,76.0048125,way/253268857,OpenStreetMap
Community Health Center Pulpally,Community Health Centre (CHC),Wayanad,,"Pulpally-Perikkallor_Kabanigiri_Marakkadav_Seethamount Road, Pulpally, 673579",+91-4936 240-406,,,,11.7942969,76.1651668,node/7462625817,OpenStreetMap
Community Health center Ramamangalm,Community Health Centre (CHC),Ernakulam,,,,,,,9.9235373,76.52386,node/10972467822,OpenStreetMap
Community Health Center Thiruvallur,Community Health Centre (CHC),Kozhikode,,"Kanjarattuthara,Perinjerikadavu Road, 673541",,,,,11.5897727,75.689502,node/8881633811,OpenStreetMap
Community Health Center Thrithala,Community Health Centre (CHC),Palakkad,,,,,,Department of Health and Family Welfare,10.801048,76.1309858,way/448906343,OpenStreetMap
Community Health Center Thumpamon,Community Health Centre (CHC),Pathanamthitta,,"Thumpamon- Omalloor Road, Thumpamon, 689502",,,,Government,9.2243686,76.7130482,way/972333499,OpenStreetMap
Community Health Center Vechoochira,Community Health Centre (CHC),Pathanamthitta,,,,,,DHS,9.4272221,76.8531364,node/7480201134,OpenStreetMap
"Community Health Center, Cherpulassery",Community Health Centre (CHC),Palakkad,,,,,,Department of Health and Family Welfare,10.8776799,76.3093225,way/374903994,OpenStreetMap
"Community Health Center, Ezhikkara",Community Health Centre (CHC),Ernakulam,,,,,,Department of Health and Family Welfare,10.095292,76.2342403,node/8778367958,OpenStreetMap
"Community Health Center, Koduvally",Community Health Centre (CHC),Kozhikode,,,,,,government,11.359512,75.9175657,node/6907808066,OpenStreetMap
"Community Health Center, Kongad",Community Health Centre (CHC),Palakkad,,,,,,Department of Health and Family Welfare,10.8507026,76.5281136,way/827558995,OpenStreetMap
"Community Health Center, Kozhinjampara",Community Health Centre (CHC),Palakkad,,,,,,,10.739738,76.8339452,node/10750573859,OpenStreetMap
"Community Health center, Manacaud",Community Health Centre (CHC),Thiruvananthapuram,,,,,,Department of Health services,8.4667032,76.9578758,node/7463183131,OpenStreetMap
"Community Health Center, Maranchery",Community Health Centre (CHC),Malappuram,,,,,,Department of Health and Family Welfare,10.7337632,75.9736709,way/984373192,OpenStreetMap
"Community Health Center, Mynagapally",Community Health Centre (CHC),Kollam,,,,,,Department of Health and Family Welfare,9.0316145,76.5817499,way/863572049,OpenStreetMap
"Community Health Center, Oduvallithattu",Community Health Centre (CHC),Kannur,,,,,,Government,12.137125,75.4406311,way/799757258,OpenStreetMap
"Community Health Center, Pazhambalacode",Community Health Centre (CHC),Palakkad,,Alathur-Kazhani-Pazhambalakode Road,+914922232322,,,,10.6924312,76.4526706,node/9031143370,OpenStreetMap
"Community Health Center, Puzhakkattiri",Community Health Centre (CHC),Malappuram,,,,,,DHS (Department of Health Services),10.984147,76.140418,way/799195485,OpenStreetMap
"Community Health Center, Thiruvangoor",Community Health Centre (CHC),Kozhikode,,,,,,,11.3838928,75.7351443,node/9931371969,OpenStreetMap
"Community Health Center, Thiruvilwamala",Community Health Centre (CHC),Thrissur,,"Pazhayannur-Lakkidi Road, Thiruvilwamala, 680588",+91-4884-250828,phcthonoorkara@gmail.com,,government,10.7350055,76.4269647,way/778769313,OpenStreetMap
"Community Health Center,Edappally",Community Health Centre (CHC),Ernakulam,,"Elamakkara Road, Edappally, 682024",,,,Department of Health and Family Welfare,10.0177501,76.3027079,way/803382640,OpenStreetMap
"Community health center,Mangalathuthazham",Community Health Centre (CHC),Ernakulam,,,,,,,9.8508146,76.605833,way/1002827863,OpenStreetMap
Community Health Centre,Community Health Centre (CHC),Thiruvananthapuram,,,,,,Department of Health and Family Welfare,8.631711,76.9373894,way/894457833,OpenStreetMap
Community Health Centre  Orkatteri,Community Health Centre (CHC),Kozhikode,,,,,,,11.6541002,75.6004821,way/880532247,OpenStreetMap
"Community Health Centre , Cheruvady",Community Health Centre (CHC),Kozhikode,,,,,,Dept. Of Health Services,11.2726307,76.0514356,way/880460066,OpenStreetMap
Community Health Centre Alappad,Community Health Centre (CHC),Thrissur,,"Ammadam - Peringottukara Rd, Alapad,, Thrissur, 680641",,,,GOVERNMENT,10.4418263,76.1605816,way/877384965,OpenStreetMap
Community Health Centre Anthikkad,Community Health Centre (CHC),Thrissur,,,,,,Department of Health and Family Welfare,10.453137,76.1145664,node/8998310242,OpenStreetMap
Community Health Centre Arookutty,Community Health Centre (CHC),Alappuzha,,,,,,Department of health services,9.8681718,76.3206568,way/799550107,OpenStreetMap
Community Health Centre Aryanad,Community Health Centre (CHC),Thiruvananthapuram,,,,,,Department of Health Service,8.5806162,77.0861809,node/6894794697,OpenStreetMap
Community Health Centre Badiadka,Community Health Centre (CHC),Kasaragod,,,,,,Department of Health and Family Welfare,12.583766,75.0727648,way/998332288,OpenStreetMap
Community Health Centre Chalissery,Community Health Centre (CHC),Palakkad,,"Chalissery- Pattissery Road, Chalissery, 679536",,,,Deparment of Health And Family Welfare,10.7371146,76.0882044,way/938389842,OpenStreetMap
Community Health Centre Chathenkary,Community Health Centre (CHC),Pathanamthitta,,,,,,Government,9.3793053,76.5248677,node/8075339458,OpenStreetMap
Community Health Centre Chempupuram,Community Health Centre (CHC),Alappuzha,,,+91-477 2736318,chcchempumpuram@gmail.com,,Department of Health and Family Welfare,9.4211517,76.3844786,node/7478071899,OpenStreetMap
Community Health Centre Cherpu,Community Health Centre (CHC),Thrissur,,"cherpu thriprayar rd, Thrissur, 680561",+91-487-2344713,chccherpu@gmail.com,,Government authorities,10.4400666,76.2106348,way/954602075,OpenStreetMap
Community Health Centre Chunakara,Community Health Centre (CHC),Alappuzha,,,+91-479 2382305,chcchunakara@gmail.com,,Department of Health Services,9.1796075,76.6051442,node/7478103571,OpenStreetMap
Community Health Centre Chunakkara,Community Health Centre (CHC),Alappuzha,,,,,,Department of Health and Family Welfare,9.207855,76.5583592,node/8995791004,OpenStreetMap
Community Health Centre Devikulam,Community Health Centre (CHC),Idukki,,,,,,DEPARTMENT OF HALTH SERVICES,10.066926,77.1109317,node/7476662102,OpenStreetMap
Community Health Centre Edathuva,Community Health Centre (CHC),Alappuzha,,,,,,Department of Health and Family Welfare,9.3667026,76.4767576,node/8995791009,OpenStreetMap
Community Health Centre Elanthoor,Community Health Centre (CHC),Pathanamthitta,,,,,,Department of Health and Family Welfare,9.2850602,76.7215243,node/8995791008,OpenStreetMap
Community Health Centre Elinjipra,Community Health Centre (CHC),Thrissur,,"potta-elinjipra road, Kodassery, Chowka;Chalakudy, 680721",+91-480-2701045,phcelinjipra@gmail.com,,Government Authorities,10.3307616,76.3515203,way/976214510,OpenStreetMap
Community Health Centre Erumapetty,Community Health Centre (CHC),Thrissur,,"Erumapetty CHC, Kunnamkulam - Wadakkanchery Road, Kunnamkulam, 680584",,,,government,10.6798737,76.1572579,way/989911980,OpenStreetMap
Community Health Centre Iranimuttom,Community Health Centre (CHC),Thiruvananthapuram,,,,,,Department of Health and Family Welfare,8.4689299,76.9590901,node/8995195336,OpenStreetMap
Community Health Centre Iriveri,Community Health Centre (CHC),Kannur,,"kannur, 670613",,,,government,11.8894805,75.4704203,way/836282456,OpenStreetMap
Community Health Centre Iriveri,Community Health Centre (CHC),Kannur,,"kannur, 670613",,,,government,11.8895508,75.4704066,way/836282457,OpenStreetMap
Community Health Centre Kadappuram,Community Health Centre (CHC),Thrissur,,"Kadappuram, Guruvayur, 680514",+91-487-2530336,moicphckdpm@rediffmail.com,,,10.5405165,76.0248704,way/663879681,OpenStreetMap
Community Health Centre Kalakkodu,Community Health Centre (CHC),Kollam,,,,,,,8.8026805,76.6827965,node/9207074194,OpenStreetMap
Community Health Centre Kallara,Community Health Centre (CHC),Thiruvananthapuram,,,,,,Department of Health services,8.7436712,76.9392469,way/742758031,OpenStreetMap
Community Health Centre Kalloopara,Community Health Centre (CHC),Pathanamthitta,,,,,,Department of Health and Family Welafare,9.4098255,76.6355253,node/9003228329,OpenStreetMap
Community Health Centre Kanjeettukara,Community Health Centre (CHC),Pathanamthitta,,,,,,Department of Health and Family Welfare,9.3688868,76.7213885,node/7479233246,OpenStreetMap
Community Health Centre Kanyakulangara,Community Health Centre (CHC),Thiruvananthapuram,,,,,,Department of Health and Family Welfare,8.6318455,76.9372484,node/8044553916,OpenStreetMap
community health centre Karunapuram,Community Health Centre (CHC),Idukki,,,,,,,9.7577728,77.1989303,way/951732774,OpenStreetMap
Community Health Centre Kattakada,Community Health Centre (CHC),Thiruvananthapuram,,,,,,Department of Health services,8.507602,77.0874958,way/799283215,OpenStreetMap
COMMUNITY HEALTH CENTRE KATTOOR,Community Health Centre (CHC),Thrissur,,kattoor,,,,govt,10.3872133,76.1592944,way/989314413,OpenStreetMap
community health centre keechery,Community Health Centre (CHC),Ernakulam,,,,,,,9.8404091,76.4157987,way/798390637,OpenStreetMap
Community Health Centre Kunnamthanam,Community Health Centre (CHC),Pathanamthitta,,,,,,DHS,9.441499,76.612325,way/799754268,OpenStreetMap
Community Health Centre Kurathikadu,Community Health Centre (CHC),Alappuzha,,,+91-479 2328476,,,Department of Health and Family Welfare,9.2065797,76.5600777,node/7477811163,OpenStreetMap
Community Health Centre kuttiadi,Community Health Centre (CHC),Kozhikode,,,,,,,11.6543426,75.7535964,node/10979195019,OpenStreetMap
Community Health Centre Kuzhalamannam,Community Health Centre (CHC),Palakkad,,,,,,Department of Health and Family Welfare,10.7154758,76.5968169,way/370300101,OpenStreetMap
Community Health Centre Kuzhithoulu,Community Health Centre (CHC),Idukki,,,,,,Department of Health and Family Welfare,9.7581952,77.1975321,way/934956595,OpenStreetMap
Community Health Centre Madavana,Community Health Centre (CHC),Thrissur,,Kodungallur,,,,,10.2164616,76.1833544,way/827399824,OpenStreetMap
Community Health Centre Malayidamthuruthu,Community Health Centre (CHC),Ernakulam,,,,,,Department of Health and Family Welfare,10.0669091,76.410449,node/8998310240,OpenStreetMap
Community Health Centre Malayinkeezhu,Community Health Centre (CHC),Thiruvananthapuram,,,,,,Department of Health and Family Welfare,8.4832989,77.0449699,way/867612599,OpenStreetMap
Community Health Centre Mannar,Community Health Centre (CHC),Alappuzha,,,+91-479 2313920,molcmannar@gmail.com,,Department of Health and Family Welfare,9.312983,76.5325707,node/7477932543,OpenStreetMap
Community Health Centre Mattannur,Community Health Centre (CHC),Kannur,,,,,,,11.9296242,75.5711251,way/742458431,OpenStreetMap
Community Health Centre Mattathur,Community Health Centre (CHC),Thrissur,,"mattathur;Mattathur, kodaly;Chalakudy, 680684",+91-480-2740739,phcmattathur@yahoo.com,,government,10.3749373,76.3719966,way/618452330,OpenStreetMap
Community Health Centre Muhamma,Community Health Centre (CHC),Alappuzha,,,,,,Department Of Health Science,9.6066629,76.3549901,way/799552784,OpenStreetMap
Community Health Centre Mullassery,Community Health Centre (CHC),Thrissur,,"Mullassery, Chavakkad, 680509",+91-487-2261840,chc.mly@gmail.com,,government,10.5427013,76.0797797,node/7476283840,OpenStreetMap
Community Health Centre Muthukulam,Community Health Centre (CHC),Alappuzha,,,+91-4792472193,chcmuthukulam@gmail.com,,Department of Health Services,9.2170633,76.4555065,node/7485523160,OpenStreetMap
Community Health Centre Muthukulam,Community Health Centre (CHC),Alappuzha,,,,,,Department of Health and Family Welfare,9.2169292,76.4592283,node/8995791007,OpenStreetMap
Community Health Centre Narikkuni,Community Health Centre (CHC),Kozhikode,,,,,,Department of Health and Family Welfare,11.3674232,75.8637394,node/7525420044,OpenStreetMap
Community Health Centre Nenmara,Community Health Centre (CHC),Palakkad,,"Nelliampathy Road, Nemmara, 678508",,,,government,10.592744,76.6005384,node/7499180921,OpenStreetMap
Community Health Centre Nilamel,Community Health Centre (CHC),Kollam,,0474-2433990,,,,Department of Health and Family Welfare,8.8266804,76.8787772,way/799251227,OpenStreetMap
Community Health Centre Olavanna,Community Health Centre (CHC),Kozhikode,,,,,,Department of Health and Family Welfare,11.2337906,75.8452444,node/8998310248,OpenStreetMap
Community Health Centre Ollur,Community Health Centre (CHC),Thrissur,,"Ollur, Thrissur, 680306",+91 487 2693930,mophcm@gmail.com,,government,10.478513,76.2394017,way/799150316,OpenStreetMap
Community Health Centre Pallarimangalam,Community Health Centre (CHC),Ernakulam,,,,,,Department of Health Services,10.0282011,76.689408,node/7489096073,OpenStreetMap
Community health Centre Pallarimangalam,Community Health Centre (CHC),Ernakulam,,,,,,,10.0362757,76.6868871,node/8889668840,OpenStreetMap
Community Health Centre Pallarimangalam,Community Health Centre (CHC),Ernakulam,,,,,,Department of Health Services,10.0283957,76.6895319,way/800696066,OpenStreetMap
Community Health Centre Pallipuram,Community Health Centre (CHC),Ernakulam,,,,,,,10.1677492,76.1861586,node/8897163283,OpenStreetMap
Community Health Centre Pampakuda,Community Health Centre (CHC),Ernakulam,,Anchelpetty-Pampakuda Road,,,,,9.9090543,76.52,way/800208425,OpenStreetMap
Community Health Centre Panamaram,Community Health Centre (CHC),Wayanad,,"Panamaram - Vilambukandam, Panamaram, 670721",,,,Departnment of health Services,11.7384608,76.0702992,way/799281118,OpenStreetMap
Community Health Centre Panamaram,Community Health Centre (CHC),Wayanad,,,,,,,11.7385631,76.070093,way/982240822,OpenStreetMap
Community Health Centre Panamaram,Community Health Centre (CHC),Wayanad,,,,,,,11.7385377,76.070516,way/1097620007,OpenStreetMap
Community Health Centre pandanad,Community Health Centre (CHC),Alappuzha,,"Chengannur Parumala Mannar Road Keezhuvanmazhy,Pandanad, pandanad, 689506",,,,Health Care Centre,9.3241986,76.5765972,way/799276422,OpenStreetMap
Community Health Centre Parali,Community Health Centre (CHC),Palakkad,,,,,,Department of Health and Family Welfare,10.7993563,76.5618925,way/967193389,OpenStreetMap
Community Health Centre Pazhanji,Community Health Centre (CHC),Thrissur,,"CHC Pazhanji, Pazhanji RD, Kunnamkulam, 680542",+91-4885-274249,chcpazhanji123@gmail.com,,government,10.695458,76.0621937,node/7475786491,OpenStreetMap
Community Health Centre Pazhayannur,Community Health Centre (CHC),Thrissur,,"Pazhayannur Road, Pazhayannur, 680587",+91-4884-225430,pazhayannurchc@gmail.com,,government,10.6938677,76.4252869,node/7475786488,OpenStreetMap
Community Health Centre Peria,Community Health Centre (CHC),Wayanad,,,,,,Department of Health and Family Welfare,11.8356598,75.8564181,node/8998387385,OpenStreetMap
Community Health Centre Peria,Community Health Centre (CHC),Wayanad,,"community health center, varayal, 670644",,,,Department of Health Services,11.8410438,75.8844915,way/799281364,OpenStreetMap
Community Health Centre Perinjanam,Community Health Centre (CHC),Thrissur,,"Perinjanam, Kodungallur, 680686",+91 480 2844484,chcperinjanam2008@gmail.com,,government,10.3194045,76.1534148,way/1083095434,OpenStreetMap
Community Health Centre Perumbalam,Community Health Centre (CHC),Alappuzha,,,,,,Department Of Health Services,9.8528227,76.355385,way/799560230,OpenStreetMap
Community Health Centre Perumkadavila,Community Health Centre (CHC),Thiruvananthapuram,,,,,,Department of health services,8.444332,77.1100842,way/742888839,OpenStreetMap
Community Health Centre Porunnanore,Community Health Centre (CHC),Wayanad,,"Kattichira Maqam Road, Peechamkode, 670732",,,,Department of Health Services,11.7510286,76.0048247,node/2000118622,OpenStreetMap
Community Health Centre Ramapuram,Community Health Centre (CHC),Kottayam,,"community health center Ramapuram, Ramapuram- Pizhaku road, Ramapuram, 686576",+91-4822-263806,,,Department of Health and Family Welfare,9.8022635,76.6623757,node/5518921573,OpenStreetMap
Community Health Centre Ranni Perunnadu,Community Health Centre (CHC),Pathanamthitta,,,,,,Department of Health and Family Welfare,9.3678012,76.8553176,node/3804590000,OpenStreetMap
Community Health Centre Sooranadu,Community Health Centre (CHC),Kollam,,,,,,Department of Health and Family Welfare,9.1043094,76.6243037,way/863574995,OpenStreetMap
Community Health Centre Thalakulathur,Community Health Centre (CHC),Kozhikode,,,,,,Department of Health and Family Welfare,11.3517241,75.7626674,way/800627589,OpenStreetMap
Community Health Centre Thariyode,Community Health Centre (CHC),Wayanad,,,,,,,11.6553728,75.9958546,way/846674090,OpenStreetMap
Community Health Centre Thiruvalloor,Community Health Centre (CHC),Kozhikode,,,,,,Department of Health and Family Welfare,11.5915919,75.6725996,node/8998310250,OpenStreetMap
Community Health Centre Thrikkadavoor,Community Health Centre (CHC),Kollam,,,,,,Department Of Health Services,8.9261564,76.59787,node/9163115792,OpenStreetMap
Community Health Centre Thrikkadavur,Community Health Centre (CHC),Kollam,,0474-2706069,,,,Department of Health and family Welfare,8.9261452,76.5979116,way/799243897,OpenStreetMap
Community Health Centre Thrikkunnapuzha,Community Health Centre (CHC),Alappuzha,,,,,,Department of Health and Family Welfare,9.2598151,76.4109582,way/800697829,OpenStreetMap
Community Health Centre Thriprayar,Community Health Centre (CHC),Thrissur,,"Thriprayar-Cherpu Road, Thanniyam, Peringottukara, 680564",+91 487 2397555,chcthriprayar@gmail.com,,government,10.4140051,76.1219716,node/7121494749,OpenStreetMap
Community Health Centre Ulliyeri,Community Health Centre (CHC),Kozhikode,,,,,,Department of Health and Family Welfare,11.4435486,75.7721347,way/880561642,OpenStreetMap
Community Health Centre Vadakkekkad,Community Health Centre (CHC),Thrissur,,"Guruvayoor - Althara - Ponnani Road;Vadakkekad-Kochanoor Road, Vadakkekad;Guruvayur, 679562",+91-487-2541167,chcvkd@gmail.com,,government,10.6627037,76.0035149,way/958154106,OpenStreetMap
Community Health Centre Vadakkenchery,Community Health Centre (CHC),Palakkad,,,,,,Department of Health and Family Welfare,10.5893781,76.4910164,way/863711204,OpenStreetMap
Community Health Centre Vadavucode,Community Health Centre (CHC),Ernakulam,,"Ashupathripadi - Choyikaramukal Rd, Vadavucode, 682310",,,,Department of Health Services,9.9774466,76.4270011,way/950011080,OpenStreetMap
Community Health Centre Vakkom,Community Health Centre (CHC),Thiruvananthapuram,,,+91 470 2653862,movakkom@gmail.com,,Department of Health services,8.6893651,76.7640592,way/799175354,OpenStreetMap
Community Health Centre Valapad,Community Health Centre (CHC),Thrissur,,"Valappad, Chavakkad, 680567",+91 487 2392553,chccalappad@yahoo.com,,government,10.4005509,76.117666,way/991840667,OpenStreetMap
Community Health Centre Valayam,Community Health Centre (CHC),Kozhikode,,,,,,Department of Health and Family Welfare,11.7221635,75.6683081,way/804101294,OpenStreetMap
Community Health Centre Vallana,Community Health Centre (CHC),Pathanamthitta,,,,,,DHS,9.2977419,76.6679756,way/799270955,OpenStreetMap
Community Health Centre Vallana,Community Health Centre (CHC),Pathanamthitta,,"vallana, pathanamthitta, kerala, 689504",,,,DHC,9.3156524,76.6680528,way/905841988,OpenStreetMap
Community Health Centre Vandanmedu,Community Health Centre (CHC),Idukki,,,,,,Department of Health and Family Welfare,9.6978127,77.1619955,way/743308110,OpenStreetMap
Community Health Centre Vandiperyar,Community Health Centre (CHC),Idukki,,,,,,Department of Health and Family Welfare,9.5720991,77.0895717,node/8995791014,OpenStreetMap
Community Health Centre Varapetty,Community Health Centre (CHC),Ernakulam,,,,,,,10.0489598,76.6263478,node/8889686729,OpenStreetMap
Community Health Centre Vathikudy,Community Health Centre (CHC),Idukki,,"Pathinaramkandam, Pathinaramkandam",,,,government,9.8911357,77.0092779,node/9084268067,OpenStreetMap
Community Health Centre Vellanikkara,Community Health Centre (CHC),Thrissur,,"Vellanikkara, VELLANIKKARA;Thrissur, 680654",+91-487-2374088,phcvellanikkara@yahoo.in,,Government Authorities,10.5448754,76.2880369,way/866748951,OpenStreetMap
Community Health Centre Vengoor,Community Health Centre (CHC),Ernakulam,,,,,,Department of Health and Family Welfare,10.1412957,76.5494889,node/8998310241,OpenStreetMap
Community Health centre Vengoor,Community Health Centre (CHC),Ernakulam,,,,,,,10.1493904,76.5420108,way/617773107,OpenStreetMap
"Community Health Centre, Ambalapuzha",Community Health Centre (CHC),Alappuzha,,,+91-477 2272129,,,Department of Health and Family Welfare,9.3842458,76.3542936,node/7478050450,OpenStreetMap
"Community Health Centre, Anchal 3.0 (1)",Community Health Centre (CHC),Kollam,,0475-2273560,,,,Department of Health and Family Welfare,8.9288799,76.914492,way/799615604,OpenStreetMap
"Community Health Centre, Anchuthengu",Community Health Centre (CHC),Thiruvananthapuram,,"Chilakkoor_Vallakkadavu Road, Anchuthengu, 695309",,,,Department of Health and Family Welfare,8.6629799,76.7638671,way/799307872,OpenStreetMap
"Community Health Centre, Anthikkad",Community Health Centre (CHC),Thrissur,,"Anthikkad centre, Thrissur, 680641",+91-487-2633799,ghanthikad@gmail.com,,Government Authorities,10.4580529,76.1201288,node/7103918674,OpenStreetMap
"Community Health Centre, Azhikode",Community Health Centre (CHC),Kannur,,,,,,,11.9189302,75.3346572,node/8857631468,OpenStreetMap
"Community Health Centre, Azhikode",Community Health Centre (CHC),Kannur,,,+914972776485,,,Government,11.918521,75.3344855,way/799719185,OpenStreetMap
"Community Health Centre, Badiadka",Community Health Centre (CHC),Kasaragod,,"Badiyadka, 671551",,,,Department of Helth Service,12.5839889,75.0727617,way/798635459,OpenStreetMap
"Community Health Centre, Bedadka",Community Health Centre (CHC),Kasaragod,,,,,,Kerala Govt. Health Department,12.4603848,75.1674308,way/726069231,OpenStreetMap
"Community Health Centre, Chathenkary",Community Health Centre (CHC),Pathanamthitta,,"kunnamthanam, pathanamthitta, kerala, 689112",,,,Department of Health and Family Welfare,9.3793107,76.5248174,way/640095320,OpenStreetMap
"Community Health Centre, Chavara",Community Health Centre (CHC),Kollam,,"Titanium Jn., Chavara, 691583",,,,Government,9.000662,76.5365233,way/1064084294,OpenStreetMap
"Community Health Centre, Cheruvady",Community Health Centre (CHC),Kozhikode,,,,,,,11.273019,75.9861862,way/880463076,OpenStreetMap
"Community Health Centre, Chungathara",Community Health Centre (CHC),Malappuram,,,,,,Deparment of Health and Family Welfare,11.3362795,76.2859963,way/799191536,OpenStreetMap
"Community Health Centre, Edavanna",Community Health Centre (CHC),Malappuram,,,,,,DHS (Department of Health Services),11.2116456,76.1484827,way/799188263,OpenStreetMap
"Community Health Centre, Elanthoor",Community Health Centre (CHC),Pathanamthitta,,,,,,,9.299333,76.7316321,way/965560564,OpenStreetMap
"Community Health Centre, Enadimangalam",Community Health Centre (CHC),Pathanamthitta,,"chc enadimangalam road, EQlamannoor, 691524",,,,Department of Health and family Welfare,9.1228827,76.8204604,way/799745774,OpenStreetMap
"Community Health Centre, Ezhumattoor",Community Health Centre (CHC),Pathanamthitta,,,,,,DHS,9.4276496,76.6976802,way/799735346,OpenStreetMap
"Community Health Centre, Kalady",Community Health Centre (CHC),Ernakulam,,,,,,Department of Health Services,10.1689338,76.4323662,way/973114776,OpenStreetMap
"Community Health Centre, Kalikavu",Community Health Centre (CHC),Malappuram,,,,,,DEPARTMENT OF HEALTH SERVIVES,11.1713108,76.3242993,way/799452563,OpenStreetMap
"Community Health Centre, Kanjeettukara",Community Health Centre (CHC),Pathanamthitta,,,,,,,9.3636632,76.7252301,way/936678437,OpenStreetMap
"Community Health Centre, Karuvarakundu",Community Health Centre (CHC),Malappuram,,,,,,government,11.1123289,76.3443395,way/863357716,OpenStreetMap
"Community Health Centre, Koothattukulam",Community Health Centre (CHC),Ernakulam,,,,,,,9.8643508,76.5962708,node/9468240758,OpenStreetMap
"Community health centre, Koottumugham",Community Health Centre (CHC),Kannur,,,,,,Government,12.0530469,75.5347971,node/7479157283,OpenStreetMap
"Community Health Centre, Koppam",Community Health Centre (CHC),Palakkad,,,,,,,10.8697643,76.1892208,way/505230168,OpenStreetMap
"Community Health Centre, Kottakkal",Community Health Centre (CHC),Malappuram,,,,,,DEPARTMENT OF HEALTH SERVICES,10.9946048,75.9961134,way/800007244,OpenStreetMap
"Community Health Centre, Kulathupuzha",Community Health Centre (CHC),Kollam,,0475-2319166,,,,Department of Health Services,8.9065197,77.0578336,way/799244653,OpenStreetMap
"Community Health Centre, Kuzhalmannam",Community Health Centre (CHC),Palakkad,,,,,,,10.7154953,76.5968383,node/10770068960,OpenStreetMap
"Community Health Centre, Manamboor",Community Health Centre (CHC),Thiruvananthapuram,,,,,,Department of Health and Family Welfare,8.7321856,76.7910598,way/941808416,OpenStreetMap
"Community Health Centre, Melattur",Community Health Centre (CHC),Malappuram,,,,,,DHS,11.052046,76.281732,way/965582938,OpenStreetMap
"Community Health Centre, Meppady",Community Health Centre (CHC),Wayanad,,,,,,Department of Health Services,11.6202435,76.2099125,way/799282620,OpenStreetMap
"Community Health Centre, Muliyar",Community Health Centre (CHC),Kasaragod,,"Cherkala - Jalsoor Road, Bovikkanam, 671542",,,,Department of health service,12.5086788,75.0963086,node/7472666046,OpenStreetMap
"Community Health Centre, Neduva",Community Health Centre (CHC),Malappuram,,,,,,DHS,11.0769317,75.8518944,way/803753013,OpenStreetMap
"Community Health Centre, Oachira",Community Health Centre (CHC),Kollam,,0476-2690226,,,,Department of Health Services,9.1286667,76.5364687,way/799249664,OpenStreetMap
"Community health centre, Oduvallithattu",Community Health Centre (CHC),Kannur,,Pathipalam - Cheruvanchery Road,,,,Government,12.1372938,75.4405534,node/7479073829,OpenStreetMap
"Community Health Centre, Pappinisseri",Community Health Centre (CHC),Kannur,,,,,,government,11.9479824,75.3549316,way/799717742,OpenStreetMap
"Community Health Centre, Pathanapuram",Community Health Centre (CHC),Kollam,,,,,,Department of Health and family Welfare,9.094141,76.8590372,node/8323506448,OpenStreetMap
"Community Health Centre, Pazambalacode",Community Health Centre (CHC),Palakkad,,,,,,Department of Health and Family Welfare,10.6924426,76.4526494,way/863719673,OpenStreetMap
"Community Health Centre, Periya",Community Health Centre (CHC),Kasaragod,,,,,,Department of Helth Service,12.4018032,75.0997194,way/799031864,OpenStreetMap
"Community Health Centre, Peruvallur",Community Health Centre (CHC),Malappuram,,,,,,Department of Health and Family Welfare,11.1040174,75.9251656,node/8998310247,OpenStreetMap
"Community health Centre, Peruvallur",Community Health Centre (CHC),Malappuram,,,,,,DHS(DEPARTMENT OF HEALTH SERVICES),11.1200658,75.9402171,way/799397911,OpenStreetMap
"Community Health Centre, Pulpally",Community Health Centre (CHC),Wayanad,,,,,,Department of Health Services,11.782553,76.1622556,way/799283331,OpenStreetMap
"Community Health Centre, Ramapuram",Community Health Centre (CHC),Kottayam,,,+914822263806,,,,9.8031954,76.6626526,way/1015084751,OpenStreetMap
"Community Health Centre, Sachivothampuram",Community Health Centre (CHC),Kottayam,,,,,,,9.5081482,76.5265692,node/7333913403,OpenStreetMap
"Community Health Centre, Thrikkanapuram",Community Health Centre (CHC),Malappuram,,,,,,Department of Health Services,10.8521542,75.9839016,way/799465911,OpenStreetMap
"Community health centre, Upputhara",Community Health Centre (CHC),Idukki,,,,,,government,9.7106613,77.0130364,node/8049692737,OpenStreetMap
"Community Health Centre, Valavannur",Community Health Centre (CHC),Malappuram,,,,,,DHS,10.9372989,75.9759814,way/981015235,OpenStreetMap
"Community Health Centre, Varapuzha",Community Health Centre (CHC),Ernakulam,,,,,,Department of Health and Family Welfare,10.0566983,76.3018712,node/8889544551,OpenStreetMap
"Community Health Centre, Vechoochira",Community Health Centre (CHC),Pathanamthitta,,,,,,,9.4248646,76.8531285,node/3812199103,OpenStreetMap
"Community Health Centre, Vengara",Community Health Centre (CHC),Malappuram,,,,,,Department of Health and Family Welfare,11.0495047,75.9841039,way/747428293,OpenStreetMap
"Community Health Centre, Vengola",Community Health Centre (CHC),Ernakulam,,,,,,Department of Health and Family Welfare,10.0814849,76.4614122,node/8889666729,OpenStreetMap
"Community Health Centre, Vilappil",Community Health Centre (CHC),Thiruvananthapuram,,"Sasthampara-Vilappilsala road, Villapilshala, 695573",,,,Department of Health services,8.5184908,77.0408964,way/799300673,OpenStreetMap
"Community Health Centre,Cheruvathoor",Community Health Centre (CHC),Kasaragod,,"Kasargod-Kannur-Calicut Highway, Cheruvaththur, 671313",,,,Department of health service,12.2158549,75.1628134,node/7471520820,OpenStreetMap
"Community Health Centre,Mangalathuthazham",Community Health Centre (CHC),Ernakulam,,,,,,,9.8587378,76.6031446,node/9254980827,OpenStreetMap
"Community Health Centre,Mankada",Community Health Centre (CHC),Malappuram,,,,,,,11.0167907,76.1725938,way/963600423,OpenStreetMap
"Community Health Centre,Palode",Community Health Centre (CHC),Thiruvananthapuram,,"Thiruvanathapuram - Thenmala Road, Thiruvananthapuram, 695562",,,,Department of Health and Family Welfare,8.7158118,77.0281425,way/933705332,OpenStreetMap
"Community Health Centre,Thiruvallur",Community Health Centre (CHC),Kozhikode,,,,,,,11.6019522,75.6452967,way/880553732,OpenStreetMap
"Community Health Centre,Velinalloor",Community Health Centre (CHC),Kollam,,0474-2467167,,,,Department of Health and Family Welfare,8.8750872,76.7780714,way/799251390,OpenStreetMap
Darul Hijama,Clinic,Kasaragod,,"fish market,fort road, Railway Station Road, Kasaragod, 671121",,,,Public,12.4989927,74.9875813,node/7357461102,OpenStreetMap
Daya General Hospital & Speciality Surgical Centre,General Hospital,Thrissur,,,,,,,10.5459875,76.2148752,way/956125652,OpenStreetMap
Deepam Balika Bhavan Mekozhoor,Rehabilitation,Pathanamthitta,,"Mekozhoor, Pathanamthitta, 689678",,,,Government,9.3153533,76.7953446,way/835062902,OpenStreetMap
desamangalam govt. hospital,Hospital,Thrissur,,,,,,,10.7545764,76.2311613,node/7121413891,OpenStreetMap
DHC,Hospital,Pathanamthitta,,,,,,government,9.4556118,76.6416855,way/798933725,OpenStreetMap
District Early Intervention Centre,Hospital,Wayanad,,,,,,,11.6342526,76.0895455,node/10113293168,OpenStreetMap
District Hospital A A Rahim Memorial Kollam,District Hospital,Kollam,,,,,,Department of Health Services,8.8890329,76.5851898,way/784991355,OpenStreetMap
District Hospital Aluva,District Hospital,Ernakulam,,,,,,Department of Health and Family Welfare,10.1054137,76.3549958,way/934250913,OpenStreetMap
District Hospital Idukki,District Hospital,Idukki,,,,,,,9.848388,76.960646,node/9918267552,OpenStreetMap
District Hospital Kozencherry,District Hospital,Pathanamthitta,,"Kozhencherry, 689641",,,,Department of Health and Family Welfare,9.3357869,76.7064552,way/799056945,OpenStreetMap
District Hospital Mananthavady,District Hospital,Wayanad,,,,,,Department of Health and Family Welfare,11.8003707,76.0012011,way/960661790,OpenStreetMap
District Hospital Mavelikkara,District Hospital,Alappuzha,,"Mavelikkara - Kozhencherry Road, mavelikara",,,,Department of Health and Family Welfare,9.2572662,76.5519097,way/801507262,OpenStreetMap
District Hospital Nedumangadu,District Hospital,Thiruvananthapuram,,,,,,,8.6038145,77.0005619,way/886155521,OpenStreetMap
District Hospital Perinthalmanna,District Hospital,Malappuram,,Perintalmanna,,,,Department of Health and Family Welfare,10.9741608,76.2319691,way/403938883,OpenStreetMap
"District Hospital, Kanhangad",District Hospital,Kasaragod,,,,,,Department of Helth Service,12.314811,75.1048097,way/462534126,OpenStreetMap
"District Hospital, Thrissur",District Hospital,Thrissur,,"Thrissur, High Road, Thrissur, 680001",+91 487 2427778,districthospitalthrissur@gmail.com,,Government of Kerala,10.5229301,76.2174171,node/3856138162,OpenStreetMap
"District Hospital, Tirur",District Hospital,Malappuram,,,,,,,10.9120792,75.9222024,way/976890334,OpenStreetMap
District Medical Office  Pathanamthitta,Alternative,Pathanamthitta,,,+91-4682324337,,,Government,9.2748066,76.7825089,way/1085563405,OpenStreetMap
"District Medical Office (ISM), Kottayam",Alternative,Kottayam,,"Palace Road, kottayam, 686001",,,,government,9.5858268,76.5207245,node/7468529981,OpenStreetMap
District medical office Alappuzha,Alternative,Alappuzha,,Alappuzha,+91-4772252965,,,Government,9.5019941,76.3424487,way/996558615,OpenStreetMap
District Medical Office Idukki,Alternative,Idukki,,,+91-4862232318,,,government,9.8480002,76.9421636,way/498450999,OpenStreetMap
District Medical Office Kannur,Alternative,Kannur,,"kannur, 670 002",+91-497 - 2700911,,,Government,11.8743374,75.3718378,way/1085772436,OpenStreetMap
District Medical Office kottayam,Alternative,Kottayam,,,+91-4812568118,,,Government,9.5858382,76.5207324,way/1085572573,OpenStreetMap
District Medical Office Kozhikode,Alternative,Kozhikode,,673020,+91-4952371486,,,Government,11.2837811,75.7913982,way/1085754423,OpenStreetMap
"District Medical Office, (ISM),  Kollam",Alternative,Kollam,,,+91-4742763044,,,Government,8.8971763,76.5902476,way/1085752861,OpenStreetMap
"District Medical Office, (ISM), Palakkad",Alternative,Palakkad,,Palakkad,+91-4912544296,,,Government,10.7750866,76.6579938,way/997330249,OpenStreetMap
"District Medical Office, Malappuram",Alternative,Malappuram,,Malappuram,+91-4832734852,,,Government,11.042414,76.0780539,way/997334453,OpenStreetMap
District Model Hospital Peroorkada,Hospital,Thiruvananthapuram,,,,,,Department of Health and Family Welfare,8.5350403,76.9656985,way/817489163,OpenStreetMap
District Public Health Lab,Clinic,Wayanad,,,,,,,11.6589111,76.2637764,node/7998928255,OpenStreetMap
District TB Centre,Hospital,Kozhikode,,,,,,,11.2548936,75.7989023,node/10656700009,OpenStreetMap
District TB Centre,Hospital,Kozhikode,,,,,,Department of Health and Family Welfare,11.2548983,75.7995949,way/800679976,OpenStreetMap
District TB Centre Alappuzha,Hospital,Alappuzha,,,+91-477 2252861,,,Department Of Health Services,9.4913399,76.341099,way/800652382,OpenStreetMap
District TB Centre Karuvelipady,Hospital,Ernakulam,,,,,,Department of Health and Family Welfare,9.9419341,76.2602654,way/827587548,OpenStreetMap
District TB Centre Kollam,Hospital,Kollam,,"0474-2748985, 691001",,,,Department of Health Services,8.8880976,76.5883199,node/7477971537,OpenStreetMap
District TB Centre Kottayam,Hospital,Kottayam,,,,,,Department of Health Services,9.5912214,76.5266606,way/801577460,OpenStreetMap
District TB Centre Thiruvananthapuram,Hospital,Thiruvananthapuram,,,,,,Department of Health and Family Welfare,8.4997552,76.9436423,way/956295127,OpenStreetMap
"District TB Centre, Kannur",Hospital,Kannur,,,,,,,11.892471,75.3707328,way/979948619,OpenStreetMap
"District TB Centre, Kasaragod",Hospital,Kasaragod,,"DTBC, Nayaks Road, Kasaragod, 671121",,,,Department of health service,12.5037555,74.9918038,way/788849284,OpenStreetMap
"District TB Centre, Kozhencherry",Hospital,Pathanamthitta,,,,,,Department of Health Service,9.3352789,76.7066606,way/946231329,OpenStreetMap
"District TB Centre, Manjeri",Hospital,Malappuram,,"Kozhikode - Nilmbur - Gudallur Road, Cherani",,,,DHS ( Department of Health Services),11.1375182,76.1152262,way/799461020,OpenStreetMap
"District TB Centre,Ponnani",Hospital,Malappuram,,,,,,DHS (Department of Health Services),10.7699624,75.9242723,way/799463547,OpenStreetMap
"District TB Centre,Thrissur",Hospital,Thrissur,,"St Thomas College Road, Thrissur, 680001",,,,Government of Kerala,10.5230987,76.2182375,way/649481801,OpenStreetMap
Dr athira's Medicare Family Health Clinic,Family Health Centre (FHC),Pathanamthitta,,"Manthanam, 689581",,,,,9.4474682,76.5983632,node/7466365058,OpenStreetMap
Dr. Jooly's Dental Clinic,Clinic,Ernakulam,,,,,,Dr.Jooly George,10.0635809,76.6224006,node/7464471401,OpenStreetMap
Dr. Somervell Memorial CSI Medical College & Hospital,Medical College,Thiruvananthapuram,,"Karakonam, Neyattinkara, Kerala, 695504",,academics@smcsimch.ac.in,https://www.smcsimch.ac.in/index.php,,8.3910601,77.1737419,way/956081583,OpenStreetMap
E K Nayanar Memorial Government Hospital for Mother & Children,Hospital,Kannur,,,,,,,11.9917762,75.3883188,way/804231310,OpenStreetMap
E.S.I Dispensary,Govt Dispensary,Idukki,,"Vellayamkudi, Kattappana, 685515",,,,Ministry of Labour and employment,9.7697841,77.09539,node/9221945040,OpenStreetMap
E.S.I Hospital,Hospital,Thrissur,,"Amballur, 680302",,,,government,10.4319614,76.2773807,way/952232886,OpenStreetMap
ECHS Clinic,Clinic,Kozhikode,,"Kannur Rd, West Hill, Kozhikode, Kerala, Old NH17 Road, Calicut, 673005",+91-495 238 4437,echspolyclinicclt@gmail.com,,Military,11.289159,75.7669635,way/698850083,OpenStreetMap
ECHS POLYCLINIC,Hospital,Kottayam,,,+91-481 2372661,,,government,9.5860683,76.5837421,node/8419808840,OpenStreetMap
"ECHS Polyclinic, Kundara,Kollam",Hospital,Kollam,,,,,,Department of Health services,8.9659474,76.671143,node/7499298032,OpenStreetMap
Edamon PHC,Primary Health Centre (PHC),Pathanamthitta,,,,,,,9.4413302,76.8139814,node/8659728883,OpenStreetMap
Elappully Government Hospital (2),Hospital,Palakkad,,,,,,,10.7561085,76.7452228,way/798794279,OpenStreetMap
Elappully Government Taluk Hospital,Taluk Hospital,Palakkad,,,,,,,10.7565242,76.7449551,way/798793680,OpenStreetMap
Employees State Insurance Hospital,Hospital,Kollam,,,,,,Employees' State Insurance,8.8768882,76.6099102,way/846963893,OpenStreetMap
ESI Dispensary,Govt Dispensary,Kollam,,,,,,Employees' State Insurance,8.8768934,76.6100816,node/7903276311,OpenStreetMap
ESI Dispensary,Govt Dispensary,Thiruvananthapuram,,,,,,Employees' State Insurance,8.4806983,76.9709153,node/8318400134,OpenStreetMap
ESI Dispensary,Govt Dispensary,Ernakulam,,,,,,Employees' State Insurance,10.115693,76.4705947,way/827583298,OpenStreetMap
ESI Dispensary Angamaly,Govt Dispensary,Ernakulam,,"Joseph Plaza Shopping Complex, Angamaly, 683572",,,,Employees' State Insurance,10.1909855,76.3883808,node/10677799391,OpenStreetMap
ESI Dispensary Kasaragod,Govt Dispensary,Kasaragod,,"THERUVATH, KASARAGOD, 671121",,,,Department of Helth Service,12.4917749,74.9884491,node/7472721911,OpenStreetMap
ESI Dispensary Mangattuparambu,Govt Dispensary,Kannur,,,,,,Employees' State Insurance,11.9919084,75.3720642,node/10023267815,OpenStreetMap
"ESI Dispensary, Kottiyam",Govt Dispensary,Kollam,,,,,,Employees' State Insurance,8.8667693,76.6671954,way/865250974,OpenStreetMap
ESI Hospital,Hospital,Palakkad,,,,,,Employees' State Insurance,10.7876921,76.6401767,way/464126408,OpenStreetMap
ESI Hospital,Hospital,Thrissur,,,,,,Employees' State Insurance,10.5171764,76.1829079,way/625703453,OpenStreetMap
ESI Hospital,Hospital,Ernakulam,,,,,,Employees' State Insurance,9.994072,76.2853802,way/756929577,OpenStreetMap
ESI Hospital,Hospital,Kollam,,"Kollam - Teni Highway, sasthamcotta, 690520",,,,government,9.0663839,76.6384781,way/955319829,OpenStreetMap
Esi Hospital Perayam,Hospital,Kollam,,,,,,Employees' State Insurance,8.9863749,76.6765344,way/956135894,OpenStreetMap
"ESI Hospital, Vadavathoor",Hospital,Kottayam,,Vadavathoor_MRF Road,,,,Employees' State Insurance,9.6011629,76.5624014,way/938866243,OpenStreetMap
Extension centre,Yes,Kottayam,,,,,,Government,9.5466965,76.8431199,node/8387712838,OpenStreetMap
F amily Welfare Centre Kodakkad,Health_Centre,Kasaragod,,"Chembakanam-Vellachal, kodakkad, 671310",,,,government,12.2035846,75.1916679,way/1036023991,OpenStreetMap
F. R. U. District Hospital Kottayam,District Hospital,Kottayam,,"KK Road, Kottayam, 686001",,,,,9.5895038,76.5266508,node/7476606029,OpenStreetMap
Family  Health Centre Vakkom,Hospital,Thiruvananthapuram,,,,,,eHealth,8.6880092,76.7510167,way/945155370,OpenStreetMap
Family  Health Centre Veli,Hospital,Thiruvananthapuram,,,,,,Department of Health services,8.5152596,76.8830139,way/800723021,OpenStreetMap
Family Health  Centre Pozhuthana,Family Health Centre (FHC),Wayanad,,"FHC, Pozhuthana, Pozhuthana, 673575",,,,Department of Health Services,11.5875559,76.0217248,way/799300979,OpenStreetMap
Family Health Care,Family Health Centre (FHC),Ernakulam,,"NH85, Old Bus Stand Road, Thrippunithura, 682301",,,,,9.9489684,76.3473354,node/9401734870,OpenStreetMap
Family Health Care Centre,Family Health Centre (FHC),Thiruvananthapuram,,,,,,,8.4970601,77.1104418,node/8573995195,OpenStreetMap
"Family Health Care Clinic, Kadapadi",Family Health Centre (FHC),Malappuram,,"Peruvallur, 673638",,,,,11.1130825,75.9465294,way/1022165277,OpenStreetMap
Family Health Cente Karalam,Family Health Centre (FHC),Thrissur,,,,,,,10.4018243,76.1887718,way/801347234,OpenStreetMap
family health center,Family Health Centre (FHC),Kozhikode,,,,,,,11.3638787,75.8239637,node/9170904755,OpenStreetMap
Family Health Center,Family Health Centre (FHC),Thrissur,,,,,,,10.641683,76.1750064,way/1023888631,OpenStreetMap
"Family Health Center , Elampalloor",Family Health Centre (FHC),Kollam,,"0474-2547361, 691504",,,,Department of Health Services,8.9263673,76.6702488,way/799563541,OpenStreetMap
FAMILY HEALTH CENTER CHATHURANGAPPARA,Family Health Centre (FHC),Idukki,,,,,,,9.8927455,77.2100633,way/962314854,OpenStreetMap
Family Health center chennad,Family Health Centre (FHC),Kottayam,,"Erattupetta - Chennad Road, Chennad, 686581",,,,Health department,9.6393844,76.8178219,way/1102306426,OpenStreetMap
Family Health Center Chethalayam,Family Health Centre (FHC),Wayanad,,,,,,Department of Health Services,11.7481484,76.237039,way/799306961,OpenStreetMap
Family Health Center Desamangalam,Family Health Centre (FHC),Thrissur,,"DESAMANGALAM, 679532",,,,,10.7545069,76.2311832,way/946709207,OpenStreetMap
Family Health Center Edacheri,Family Health Centre (FHC),Kozhikode,,,,,,Department of Health and Family Welfare,11.7011858,75.6094219,way/973214230,OpenStreetMap
Family Health Center Edalamkunn,Family Health Centre (FHC),Thrissur,,,,,,,10.6999077,76.2755817,way/1080683261,OpenStreetMap
Family Health Center Edalamkunn Ground,Family Health Centre (FHC),Thrissur,,,,,,,10.6998333,76.2754503,node/9905316947,OpenStreetMap
Family Health Center Edamala,Family Health Centre (FHC),Kottayam,,"Poonjar - Kunnonni Road, edamala, 686582",,,,Health department,9.6628082,76.8448416,way/1100991897,OpenStreetMap
Family health center Kamakshy,Family Health Centre (FHC),Idukki,,,,,,,9.8325993,77.0438521,node/8858728317,OpenStreetMap
Family Health Center Kanjikkuzhi,Family Health Centre (FHC),Alappuzha,,,,,,,9.6438107,76.3482075,way/976363984,OpenStreetMap
Family Health Center Kizhakkenchery,Family Health Centre (FHC),Palakkad,,,,,,,10.5682269,76.4904023,node/8897609331,OpenStreetMap
Family Health Center kootakall valathuk,Family Health Centre (FHC),Kottayam,,"Poonjar - Kunnonni Road, Kootall, 686581",,,,Health Department,9.6502077,76.8224745,way/1102313194,OpenStreetMap
Family Health Center Kumaramputhur,Family Health Centre (FHC),Palakkad,,,,,,Department of Health and Family Welfare,11.0170538,76.4259722,way/978022470,OpenStreetMap
Family Health Center Kumbidi,Family Health Centre (FHC),Palakkad,,,,,,Department of Health and Family Welfare,10.8305907,76.0521849,node/8882229417,OpenStreetMap
Family Health Center Kuthannur,Family Health Centre (FHC),Palakkad,,,,,,,10.7310178,76.5445521,node/8897687027,OpenStreetMap
Family Health Center Kuttiamchal,Family Health Centre (FHC),Ernakulam,,"Kuttiamchal, Kuttampuzha",,,,,10.162613,76.747569,node/9139938672,OpenStreetMap
Family Health Center Maranalloor,Family Health Centre (FHC),Thiruvananthapuram,,,,,,Department of Health Services,8.4676474,77.0748335,node/7130275441,OpenStreetMap
Family Health Center Methala,Family Health Centre (FHC),Thrissur,,"methala, Thrissur, 680669",+91 480 2809590,pmcmethala@gmail.com,,,10.2164762,76.2163184,way/799100071,OpenStreetMap
Family Health Center Mundoor,Family Health Centre (FHC),Palakkad,,,,,,Department of Health Service,10.8386399,76.5807474,node/7480354153,OpenStreetMap
Family Health Center Nellaya,Family Health Centre (FHC),Palakkad,,,,,,Department of Health and Family Welfare,10.8867354,76.2691612,node/8879329917,OpenStreetMap
Family Health Center Nochad,Family Health Centre (FHC),Kozhikode,,,,,,,11.5233804,75.7570551,node/8881627460,OpenStreetMap
Family Health Center Omassery,Family Health Centre (FHC),Kozhikode,,,,,,Depafrtment of Health and Family Welfare,11.3721593,75.9624494,node/9062864592,OpenStreetMap
Family Health Center Ozhalapathy,Family Health Centre (FHC),Palakkad,,,,,,Department of Health and Family Welfare,10.790766,76.8937241,way/975558859,OpenStreetMap
Family Health Center Pattuvam,Family Health Centre (FHC),Kannur,,,,,,,12.0283308,75.3141898,way/788917990,OpenStreetMap
Family Health Center Pookkottukavu,Family Health Centre (FHC),Palakkad,,,,,,Department Of Health and Family Welfare,10.8567734,76.3949693,way/967161564,OpenStreetMap
Family Health Center Puduppadi,Family Health Centre (FHC),Kozhikode,,673586,,,,Department Of Health Services,11.4815104,75.9811713,node/8881574726,OpenStreetMap
Family Health Center Puduppariyaram,Family Health Centre (FHC),Palakkad,,,,,,Department of Health and Family Welfare,10.8030494,76.6235309,way/827565096,OpenStreetMap
Family Health Center Puthucode,Family Health Centre (FHC),Palakkad,,,+91-4922267243,,,,10.6368499,76.4489992,node/8897609657,OpenStreetMap
Family Health Center Ramanattukara,Family Health Centre (FHC),Kozhikode,,,,,,Department Of Health Services,11.1764483,75.8770478,node/8881580907,OpenStreetMap
Family Health Center Sreekrishnapuram,Family Health Centre (FHC),Palakkad,,"Mannarkkad Road, Sreekrishnapuram Post , Palakkad, Kerala, 679513",,,,Government,10.8983153,76.3977354,way/445616859,OpenStreetMap
Family Health Center Thalavady,Family Health Centre (FHC),Alappuzha,,,,,,DEPARTMENT OF HEALTH SERVICES,9.3687081,76.5083226,way/800763817,OpenStreetMap
Family Health Center Vadakara,Family Health Centre (FHC),Kozhikode,,"FHC Vatakara,Thazheangadi,Vatakara,673103, 673103",,,,Department of Health and Family Welfare,11.6008354,75.5778872,way/797943966,OpenStreetMap
Family Health Center Vandazhi,Family Health Centre (FHC),Palakkad,,,+91-4922296795,,,,10.5815236,76.5196983,node/8897686891,OpenStreetMap
Family Health center Vazhakkad,Family Health Centre (FHC),Malappuram,,,,,,,11.2472789,75.9512919,node/8901256417,OpenStreetMap
Family Health Center Vellinezhy,Family Health Centre (FHC),Palakkad,,"Family Health Center Vellinezhy, Kuruvattur, Thirunarayanapuram, 679504",,,,Department of Health and Family Welfare,10.908563,76.3748718,way/975576269,OpenStreetMap
Family Health Center Vettackal,Family Health Centre (FHC),Alappuzha,,,,,,department of health services,9.7295528,76.2986873,way/800755934,OpenStreetMap
Family Health Center Villyapally,Family Health Centre (FHC),Kozhikode,,673542,,,,,11.6276927,75.6457599,node/8865114460,OpenStreetMap
"Family Health Center, Edayur",Family Health Centre (FHC),Malappuram,,,,,,Government,10.9214738,76.0758757,way/973408328,OpenStreetMap
"Family Health Center, Kalliasseri",Family Health Centre (FHC),Kannur,,,,,,,11.9763343,75.3647885,way/954976971,OpenStreetMap
"Family Health Center, Kandalloor",Family Health Centre (FHC),Alappuzha,,velanchira,,,,Department of Health and Family Welfare,9.1898946,76.4707667,way/799111261,OpenStreetMap
"Family Health Center, Keralassery",Family Health Centre (FHC),Palakkad,,,,,,Department of Health and Family Welfare,10.8297608,76.4980484,way/975569900,OpenStreetMap
"Family Health Center, Kottur",Family Health Centre (FHC),Kozhikode,,,,,,Department of Health and Family Welfare,11.49372,75.8121857,node/9060531360,OpenStreetMap
"Family Health Center, Kunnamangalam",Family Health Centre (FHC),Kozhikode,,,,,,,11.305211,75.8895174,node/9898896546,OpenStreetMap
"Family Health Center, Manimala",Family Health Centre (FHC),Kottayam,,"Minor residential road, Karikkattoor, 686544",+91 4828 247 031,phcmanimala@gmail.com,,Department of Health and Family Welfare,9.4834156,76.7644206,way/800705802,OpenStreetMap
"Family Health Center, Manjapra",Family Health Centre (FHC),Ernakulam,,,,,,,10.2117565,76.4511433,way/992431628,OpenStreetMap
"Family Health Center, Meppayyur",Family Health Centre (FHC),Kozhikode,,,,,,,11.5307564,75.7099457,way/805121635,OpenStreetMap
"Family Health Center, Paipra",Family Health Centre (FHC),Ernakulam,,,,,,Department of Health and Family Welfare,10.0334178,76.5509724,way/866674761,OpenStreetMap
"Family Health Center, Palamel(Ulavukkad)",Family Health Centre (FHC),Alappuzha,,,,,,DEPARTMENT OF HEALTH SERVICES,9.1856709,76.6546707,way/800761981,OpenStreetMap
"Family Health Center, Peruvemba",Family Health Centre (FHC),Palakkad,,,,,,Department of Health and Family Welfare,10.7028783,76.6853019,node/8948019533,OpenStreetMap
"Family Health Center, Poothadi",Family Health Centre (FHC),Wayanad,,"Kenichira, Kenichira, 673596",,,,Department of Health and Family Welfare,11.7253588,76.1484157,way/952104319,OpenStreetMap
"Family Health Center, Varadhoor",Family Health Centre (FHC),Wayanad,,,,,,,11.6995842,76.1057776,way/1084062616,OpenStreetMap
"Family Health Center, Vengapally",Family Health Centre (FHC),Wayanad,,"Thekkumthara P O, 673122",,,,Department of Health and Family Welfare,11.6493678,76.0402035,way/858178631,OpenStreetMap
"Family Health Center,Vazhakulam",Family Health Centre (FHC),Ernakulam,,"4C79+CP5, South-Vazhakulam Marampilly road, 683105",,,,Department of Health and Family Welfare,10.1135071,76.41928,way/787451371,OpenStreetMap
Family Health Centre,Family Health Centre (FHC),Kannur,,"Kunhimangalam, Payyanur",,,,,12.0834914,75.2363728,node/9163902726,OpenStreetMap
Family health centre,Family Health Centre (FHC),Ernakulam,,,,,,,10.1033088,76.3900272,node/10970406426,OpenStreetMap
